,City ID,City,Lat,Lng,Max Temp,Humidity,Cloudiness,Wind Speed,Country,Date
0,{0},Slobozia,46.7281,29.7078,23.0,93,90,12.66,MD,2021-02-07 18:34:53
1,{1},Ushuaia,-54.8,-68.3,59.0,47,40,12.66,AR,2021-02-07 18:34:53
2,{2},Mar del Plata,-38.0023,-57.5575,60.8,88,90,25.32,AR,2021-02-07 18:33:49
3,{3},Avarua,-21.2078,-159.775,80.6,83,20,5.75,CK,2021-02-07 18:34:53
4,{4},Punta Arenas,-53.15,-70.9167,69.8,23,0,12.66,CL,2021-02-07 18:31:06
5,{5},Vestmannaeyjar,63.4427,-20.2734,35.6,87,40,26.46,IS,2021-02-07 18:34:53
6,{6},Poyarkovo,49.6,128.6833,-17.45,87,0,7.58,RU,2021-02-07 18:34:54
7,{7},Chui,-33.6971,-53.4616,75.25,62,1,9.93,UY,2021-02-07 18:34:54
8,{8},Sitka,57.0531,-135.33,30.2,47,1,5.75,US,2021-02-07 18:34:54
9,{10},Puerto Ayora,-0.7393,-90.3518,84.2,70,0,17.27,EC,2021-02-07 18:34:54
10,{11},Thompson,55.7435,-97.8558,-31.0,68,90,18.41,CA,2021-02-07 18:34:54
11,{12},Egvekinot,66.3167,-179.1667,-9.83,81,0,14.9,RU,2021-02-07 18:34:54
12,{14},Zhemtala,43.2841,43.6559,26.6,100,90,4.47,RU,2021-02-07 18:34:54
13,{15},Wenling,28.3669,121.36,60.01,75,100,7.29,CN,2021-02-07 18:34:55
14,{16},Praia,14.9215,-23.5087,71.6,60,75,24.16,CV,2021-02-07 18:34:11
15,{17},Mataura,-46.1927,168.8643,53.82,77,99,2.01,NZ,2021-02-07 18:34:55
16,{18},Longyearbyen,78.2186,15.6401,15.8,73,75,19.57,SJ,2021-02-07 18:33:10
17,{19},Lagoa,39.05,-27.9833,57.76,74,100,20.76,PT,2021-02-07 18:31:50
18,{20},Ilulissat,69.2167,-51.1,26.6,36,0,11.5,GL,2021-02-07 18:34:55
19,{21},Hobart,-42.8794,147.3294,53.6,58,1,5.75,AU,2021-02-07 18:34:55
20,{22},Karaman Province,37.0833,33.25,45.95,89,49,13.62,TR,2021-02-07 18:34:55
21,{23},George Town,5.4112,100.3354,82.99,83,20,4.03,MY,2021-02-07 18:30:39
22,{24},Oyama,36.3,139.8,48.0,59,20,1.14,JP,2021-02-07 18:34:56
23,{25},Port Elizabeth,-33.918,25.5701,68.0,94,75,10.36,ZA,2021-02-07 18:34:56
24,{27},Nchelenge,-9.3451,28.734,74.14,80,100,5.37,ZM,2021-02-07 18:34:56
25,{28},Dubbo,-32.25,148.6167,62.6,82,23,9.22,AU,2021-02-07 18:34:56
26,{29},Saint-Philippe,-21.3585,55.7679,78.8,83,0,5.75,RE,2021-02-07 18:34:56
27,{30},Hambantota,6.1241,81.1185,77.0,94,0,8.05,LK,2021-02-07 18:34:56
28,{32},Albany,42.6001,-73.9662,30.99,74,100,4.23,US,2021-02-07 18:34:57
29,{34},Husavik,66.0449,-17.3389,32.0,80,90,3.44,IS,2021-02-07 18:34:57
30,{35},Isiro,2.7739,27.616,70.14,31,100,1.61,CD,2021-02-07 18:34:57
31,{36},Saskylakh,71.9167,114.0833,-37.28,78,28,12.64,RU,2021-02-07 18:34:57
32,{37},Ussel,45.55,2.3167,39.99,44,100,5.1,FR,2021-02-07 18:34:57
33,{38},Dikson,73.5069,80.5464,-31.72,85,90,12.55,RU,2021-02-07 18:34:57
34,{39},Suslovo,56.2167,88.1167,18.5,93,28,11.65,RU,2021-02-07 18:34:58
35,{40},Slave Lake,55.2834,-114.769,-27.4,68,1,6.91,CA,2021-02-07 18:32:20
36,{41},Jacareacanga,-6.2222,-57.7528,82.02,90,99,3.4,BR,2021-02-07 18:34:58
37,{42},Kathu,7.9178,98.3332,77.0,88,20,4.61,TH,2021-02-07 18:34:58
38,{43},West Wendover,40.7391,-114.0733,51.8,12,1,19.57,US,2021-02-07 18:34:58
39,{44},Omboué,-1.5746,9.2618,79.34,84,100,5.39,GA,2021-02-07 18:34:58
40,{45},Mossamedes,-15.1961,12.1522,73.11,76,100,4.21,AO,2021-02-07 18:30:58
41,{46},Tuatapere,-46.1333,167.6833,57.31,72,100,5.64,NZ,2021-02-07 18:34:58
42,{47},Barcelona,41.3888,2.159,52.0,71,20,5.75,ES,2021-02-07 18:31:51
43,{48},Vardø,70.3705,31.1107,23.0,86,75,32.21,NO,2021-02-07 18:32:57
44,{49},Sahuaripa,29.05,-109.2333,76.28,19,0,3.49,MX,2021-02-07 18:34:59
45,{50},Bluff,-46.6,168.3333,54.77,83,92,5.39,NZ,2021-02-07 18:34:59
46,{51},Salalah,17.0151,54.0924,73.4,68,40,3.44,OM,2021-02-07 18:34:59
47,{52},Olafsvik,64.8945,-23.7142,33.82,85,17,14.99,IS,2021-02-07 18:34:59
48,{53},Cockburn Town,21.4612,-71.1419,80.6,74,40,14.97,TC,2021-02-07 18:34:59
49,{54},Kruisfontein,-34.0033,24.7314,64.99,93,97,4.0,ZA,2021-02-07 18:33:06
50,{55},Bilma,18.6853,12.9164,66.81,22,100,4.59,NE,2021-02-07 18:34:59
51,{56},Mahébourg,-20.4081,57.7,80.6,74,75,6.91,MU,2021-02-07 18:35:00
52,{57},Boa Vista,2.8197,-60.6733,87.8,51,75,12.66,BR,2021-02-07 18:35:00
53,{58},Jamestown,42.097,-79.2353,19.99,73,90,17.27,US,2021-02-07 18:31:10
54,{59},Tiksi,71.6872,128.8694,-28.01,84,24,3.91,RU,2021-02-07 18:35:00
55,{60},Cape Town,-33.9258,18.4232,69.01,60,0,25.32,ZA,2021-02-07 18:33:19
56,{61},Bredasdorp,-34.5322,20.0403,68.0,60,11,10.36,ZA,2021-02-07 18:35:00
57,{62},Taltal,-25.4,-70.4833,70.2,60,28,6.93,CL,2021-02-07 18:35:00
58,{65},Tasiilaq,65.6145,-37.6368,19.4,58,0,2.3,GL,2021-02-07 18:35:01
59,{66},Rikitea,-23.1203,-134.9692,77.32,72,91,12.3,PF,2021-02-07 18:35:01
60,{67},Cidreira,-30.1811,-50.2056,75.96,64,0,10.98,BR,2021-02-07 18:35:01
61,{68},Mount Gambier,-37.8333,140.7667,55.4,71,90,6.91,AU,2021-02-07 18:35:01
62,{69},Ponta do Sol,32.6667,-17.1,61.0,67,49,3.0,PT,2021-02-07 18:35:01
63,{70},Ancud,-41.8697,-73.8203,80.6,34,0,6.91,CL,2021-02-07 18:35:01
64,{71},High Level,58.5169,-117.136,-29.2,68,75,3.44,CA,2021-02-07 18:35:01
65,{72},Chernyshevskiy,63.0128,112.4714,1.67,95,100,2.42,RU,2021-02-07 18:35:02
66,{73},Porto Santo,33.072,-16.3415,62.6,72,75,18.41,PT,2021-02-07 18:35:02
67,{74},Hualmay,-11.0964,-77.6139,76.75,63,100,9.4,PE,2021-02-07 18:31:21
68,{75},Zemio,5.0314,25.1361,73.02,21,8,2.68,CF,2021-02-07 18:35:02
69,{76},Vung Tau,10.346,107.0843,75.27,84,100,15.1,VN,2021-02-07 18:35:02
70,{77},Saint Paul Harbor,57.79,-152.4072,26.6,68,1,4.61,US,2021-02-07 18:35:02
71,{78},Upernavik,72.7868,-56.1549,18.46,79,7,3.33,GL,2021-02-07 18:35:02
72,{79},Tommot,58.9564,126.2925,-25.29,80,0,1.5,RU,2021-02-07 18:35:02
73,{80},Barrow,71.2906,-156.7887,-22.0,76,40,10.36,US,2021-02-07 18:35:02
74,{81},Alice Springs,-23.7,133.8833,77.0,35,28,4.61,AU,2021-02-07 18:35:03
75,{82},Ingham,42.6,-84.3833,10.99,61,90,14.97,US,2021-02-07 18:35:03
76,{83},Mayo,38.8876,-76.5119,37.0,100,90,6.91,US,2021-02-07 18:35:03
77,{85},Alekseyevskaya,50.2896,42.1845,6.01,74,0,11.52,RU,2021-02-07 18:35:03
78,{86},Kombolcha,11.0816,39.7434,56.32,85,97,2.44,ET,2021-02-07 18:35:03
79,{87},Hamilton,39.1834,-84.5333,23.0,38,1,9.22,US,2021-02-07 18:32:19
80,{88},Sobolevo,54.4299,31.8996,0.68,93,38,7.7,RU,2021-02-07 18:35:03
81,{89},Laguna,38.421,-121.4238,57.99,87,1,4.14,US,2021-02-07 18:35:04
82,{90},Talara,-4.5772,-81.2719,89.6,48,0,16.11,PE,2021-02-07 18:30:08
83,{91},Bima,-8.4667,118.7167,76.01,85,94,1.79,ID,2021-02-07 18:35:04
84,{92},Severodvinsk,64.5635,39.8302,-5.8,84,40,2.24,RU,2021-02-07 18:35:04
85,{93},Dengzhou,37.8086,120.7508,28.4,83,0,6.08,CN,2021-02-07 18:35:04
86,{94},New Norfolk,-42.7826,147.0587,53.6,58,0,5.75,AU,2021-02-07 18:35:05
87,{95},Riacho de Santana,-13.6092,-42.9389,78.4,73,100,5.73,BR,2021-02-07 18:35:05
88,{97},Butaritari,3.0707,172.7902,80.94,80,88,19.69,KI,2021-02-07 18:30:33
89,{98},Barlinek,52.9946,15.2186,21.0,50,100,14.0,PL,2021-02-07 18:35:05
90,{99},Aginskoye,51.1,114.53,-5.71,88,82,2.95,RU,2021-02-07 18:35:05
91,{100},Aden,12.7794,45.0367,75.47,65,0,4.23,YE,2021-02-07 18:30:57
92,{101},Vaini,-21.2,-175.2,78.8,89,75,12.66,TO,2021-02-07 18:35:05
93,{102},Xai-Xai,-25.0519,33.6442,77.76,80,100,5.7,MZ,2021-02-07 18:35:05
94,{104},Chokurdakh,70.6333,147.9167,-22.59,86,99,7.85,RU,2021-02-07 18:35:06
95,{105},Atuona,-9.8,-139.0333,79.41,75,23,21.63,PF,2021-02-07 18:35:06
96,{106},Lüderitz,-26.6481,15.1594,71.65,59,0,30.71,NA,2021-02-07 18:35:06
97,{107},Saint Anthony,45.0205,-93.218,-6.0,54,1,10.36,US,2021-02-07 18:35:06
98,{108},Qaanaaq,77.484,-69.3632,12.2,86,74,5.61,GL,2021-02-07 18:35:06
99,{109},Lata,40.1629,-8.3327,54.0,93,100,3.0,PT,2021-02-07 18:35:06
100,{110},Hermanus,-34.4187,19.2345,68.0,74,2,4.68,ZA,2021-02-07 18:35:07
101,{111},Antofagasta,-23.65,-70.4,75.0,56,0,12.66,CL,2021-02-07 18:35:07
102,{112},Lādnūn,27.65,74.3833,63.12,30,0,6.29,IN,2021-02-07 18:35:07
103,{113},Yarke Pole,45.608,34.3172,30.88,94,100,12.68,UA,2021-02-07 18:35:07
104,{114},Matagami,49.7502,-77.6328,10.4,79,90,11.5,CA,2021-02-07 18:35:07
105,{115},Araouane,18.9048,-3.5265,67.98,23,0,8.75,ML,2021-02-07 18:35:07
106,{116},Dabat,12.9842,37.765,46.56,52,0,2.26,ET,2021-02-07 18:32:50
107,{117},Karratha,-20.7377,116.8463,78.24,71,0,9.57,AU,2021-02-07 18:35:07
108,{118},Mondlo,-27.983,30.7177,65.39,98,34,6.8,ZA,2021-02-07 18:35:07
109,{119},Nokaneng,-19.6667,22.2667,71.98,88,100,7.36,BW,2021-02-07 18:35:08
110,{120},Abéché,13.8292,20.8324,72.52,18,4,10.25,TD,2021-02-07 18:35:08
111,{121},Soyo,-6.1349,12.3689,81.14,82,100,8.75,AO,2021-02-07 18:35:08
112,{122},Tuktoyaktuk,69.4541,-133.0374,-25.6,75,75,19.57,CA,2021-02-07 18:35:08
113,{124},Beloha,-25.1667,45.05,76.06,86,2,8.41,MG,2021-02-07 18:35:08
114,{125},Busselton,-33.65,115.3333,64.0,99,93,9.37,AU,2021-02-07 18:33:53
115,{126},Tornio,65.8481,24.1466,5.0,85,0,2.3,FI,2021-02-07 18:35:08
116,{127},Meulaboh,4.1363,96.1285,77.4,85,79,4.18,ID,2021-02-07 18:35:09
117,{128},Wagar,16.1525,36.2032,66.45,65,0,20.27,SD,2021-02-07 18:35:09
118,{129},Nikolskoye,59.7035,30.7861,15.8,92,90,8.95,RU,2021-02-07 18:35:09
119,{130},Nouadhibou,20.931,-17.0347,68.0,68,0,17.27,MR,2021-02-07 18:35:09
120,{132},Parrita,9.5201,-84.3225,86.0,50,20,18.41,CR,2021-02-07 18:35:09
121,{133},Treinta y Tres,-33.2333,-54.3833,84.38,44,0,2.98,UY,2021-02-07 18:35:09
122,{135},Zamora,-4.0692,-78.9567,82.4,39,75,5.75,EC,2021-02-07 18:35:10
123,{136},Charters Towers,-20.1,146.2667,76.96,88,100,7.96,AU,2021-02-07 18:35:10
124,{137},San Patricio,28.017,-97.5169,73.4,40,1,13.8,US,2021-02-07 18:35:10
125,{139},Boueni,-12.9025,45.0761,82.4,78,75,6.91,YT,2021-02-07 18:35:10
126,{140},Bambous Virieux,-20.3428,57.7575,80.6,74,75,6.91,MU,2021-02-07 18:35:10
127,{141},Terney,45.0503,136.6092,-2.47,86,0,16.33,RU,2021-02-07 18:35:10
128,{143},Provideniya,64.3833,-173.3,-3.93,79,100,16.67,RU,2021-02-07 18:35:11
129,{144},Lebu,-37.6167,-73.65,63.72,75,11,8.66,CL,2021-02-07 18:35:11
130,{145},Hilo,19.7297,-155.09,71.01,52,1,8.05,US,2021-02-07 18:32:59
131,{146},Visnes,59.3556,5.2242,25.0,53,0,6.91,NO,2021-02-07 18:35:11
132,{147},Cherskiy,68.75,161.3,-4.32,70,12,1.23,RU,2021-02-07 18:35:11
133,{148},Port Alfred,-33.5906,26.891,66.99,95,100,8.48,ZA,2021-02-07 18:35:11
134,{149},Khatanga,71.9667,102.5,-30.17,80,0,9.93,RU,2021-02-07 18:35:11
135,{150},Kratovo,42.0792,22.1814,42.8,93,20,3.44,MK,2021-02-07 18:35:11
136,{151},Yellowknife,62.456,-114.3525,-43.6,66,1,5.75,CA,2021-02-07 18:35:02
137,{153},Mahon,39.8885,4.2658,48.2,93,40,5.75,ES,2021-02-07 18:35:12
138,{155},Kapaa,22.0752,-159.319,60.8,77,1,4.61,US,2021-02-07 18:27:28
139,{156},Iquique,-20.2208,-70.1431,78.8,44,0,19.57,CL,2021-02-07 18:33:01
140,{157},Monrovia,6.3005,-10.7969,86.0,74,20,8.05,LR,2021-02-07 18:35:12
141,{158},Khovd,48.0056,91.6419,14.13,85,100,1.68,MN,2021-02-07 18:35:12
142,{159},Saint-Augustin,51.226,-58.6502,28.36,92,5,20.71,CA,2021-02-07 18:31:20
143,{160},Hurghada,27.2574,33.8129,69.8,56,0,2.86,EG,2021-02-07 18:33:10
144,{161},Clyde River,70.4692,-68.5914,-4.0,92,90,17.27,CA,2021-02-07 18:35:13
145,{162},Vao,-22.6667,167.4833,77.05,85,85,1.1,NC,2021-02-07 18:33:47
146,{163},Boyolangu,-8.1181,111.8935,75.42,91,100,6.55,ID,2021-02-07 18:35:13
147,{164},Saint-Pierre,-21.3393,55.4781,78.8,83,0,5.75,RE,2021-02-07 18:35:13
148,{165},Nome,64.5011,-165.4064,-5.8,84,1,5.82,US,2021-02-07 18:34:00
149,{166},Saint George,37.1041,-113.5841,51.01,36,1,3.44,US,2021-02-07 18:33:07
150,{167},Ponta Delgada,37.7333,-25.6667,60.01,77,75,12.66,PT,2021-02-07 18:31:56
151,{168},Kaitangata,-46.2817,169.8464,60.01,94,100,4.0,NZ,2021-02-07 18:35:13
152,{169},Semporna,4.4818,118.6112,77.0,88,20,2.3,MY,2021-02-07 18:35:14
153,{170},Tucuruí,-3.7661,-49.6725,89.33,58,59,0.74,BR,2021-02-07 18:35:14
154,{171},Hofn,64.2539,-15.2082,35.67,94,100,18.92,IS,2021-02-07 18:35:14
155,{172},Kaeo,-35.1,173.7833,57.99,91,46,1.99,NZ,2021-02-07 18:35:14
156,{173},Severo-Yeniseyskiy,60.3725,93.0408,26.11,97,98,11.74,RU,2021-02-07 18:35:14
157,{174},Agbor,6.2518,6.1934,88.12,31,100,2.91,NG,2021-02-07 18:35:14
158,{175},Bethel,41.3712,-73.414,28.0,93,90,8.05,US,2021-02-07 18:35:14
159,{177},Henties Bay,-22.116,14.2845,64.99,87,77,4.0,NA,2021-02-07 18:35:15
160,{178},Puerto Limón,10.0,-83.0333,84.2,74,75,5.75,CR,2021-02-07 18:34:39
161,{179},Saint-Joseph,-21.3667,55.6167,78.8,83,0,5.75,RE,2021-02-07 18:35:15
162,{180},Glencoe,-28.1783,30.147,63.46,93,81,3.91,ZA,2021-02-07 18:35:15
163,{181},Necochea,-38.5473,-58.7368,57.99,96,100,10.0,AR,2021-02-07 18:35:15
164,{182},Verkhnyaya Tula,54.8839,82.7762,15.8,67,0,11.18,RU,2021-02-07 18:35:15
165,{183},Eirunepé,-6.6603,-69.8736,89.35,60,36,4.07,BR,2021-02-07 18:35:15
166,{184},East London,-33.0153,27.9116,71.6,88,40,3.44,ZA,2021-02-07 18:35:15
167,{185},Airai,-8.9266,125.4092,60.46,100,100,2.82,TL,2021-02-07 18:35:15
168,{186},Nichinan,31.6,131.3667,46.4,66,20,5.75,JP,2021-02-07 18:32:18
169,{188},Haines Junction,60.7522,-137.5108,-27.4,68,33,1.14,CA,2021-02-07 18:35:16
170,{189},Kirkuk,35.4681,44.3922,54.57,60,0,2.64,IQ,2021-02-07 18:35:16
171,{190},Shitanjing,39.2342,106.3439,29.16,78,100,5.01,CN,2021-02-07 18:35:16
172,{191},Aklavik,68.2191,-135.0107,-13.0,64,90,13.8,CA,2021-02-07 18:35:16
173,{192},Westport,41.1415,-73.3579,30.99,86,90,12.66,US,2021-02-07 18:30:58
174,{193},Hobyo,5.3505,48.5268,78.26,77,0,17.38,SO,2021-02-07 18:33:12
175,{194},Berlevåg,70.8578,29.0864,24.8,86,40,24.16,NO,2021-02-07 18:34:10
176,{195},Det Udom,14.906,105.0784,80.01,78,96,5.75,TH,2021-02-07 18:35:17
177,{196},Clonakilty,51.6231,-8.8706,39.0,75,90,20.71,IE,2021-02-07 18:35:17
178,{197},Lorengau,-2.0226,147.2712,81.23,76,99,3.27,PG,2021-02-07 18:34:11
179,{198},Okakarara,-20.5833,17.4333,76.08,50,30,8.25,NA,2021-02-07 18:35:17
180,{199},San Estanislao,10.3983,-75.1511,87.8,62,20,11.5,CO,2021-02-07 18:35:17
181,{200},Souillac,-20.5167,57.5167,80.6,74,75,6.91,MU,2021-02-07 18:35:17
182,{201},Sinazongwe,-17.2614,27.4618,78.22,79,100,3.67,ZM,2021-02-07 18:35:17
183,{202},Bilibino,68.0546,166.4372,-0.81,73,2,6.13,RU,2021-02-07 18:35:18
184,{203},Hithadhoo,-0.6,73.0833,82.08,70,65,8.75,MV,2021-02-07 18:31:18
185,{204},Bardstown,37.8092,-85.4669,32.0,43,1,8.05,US,2021-02-07 18:31:48
186,{205},Praia da Vitória,38.7333,-27.0667,59.0,72,40,16.35,PT,2021-02-07 18:35:18
187,{206},Port Lincoln,-34.7333,135.8667,59.14,80,69,16.31,AU,2021-02-07 18:35:18
188,{207},Kudahuvadhoo,2.6708,72.8944,81.19,73,19,15.7,MV,2021-02-07 18:35:18
189,{208},Bismarck,46.8083,-100.7837,-7.6,59,90,4.61,US,2021-02-07 18:30:20
190,{209},Ballina,-28.8667,153.5667,75.2,78,75,10.36,AU,2021-02-07 18:35:18
191,{210},Fortuna,40.5982,-124.1573,50.0,81,75,6.91,US,2021-02-07 18:35:18
192,{212},Oriximiná,-1.7656,-55.8661,90.63,48,100,4.34,BR,2021-02-07 18:35:19
193,{213},Ucluelet,48.9329,-125.5528,39.99,87,40,17.83,CA,2021-02-07 18:35:19
194,{214},Laminusa,5.5549,120.9136,80.82,81,100,7.27,PH,2021-02-07 18:35:19
195,{215},Pizarro,4.9533,-77.366,84.27,76,100,7.11,CO,2021-02-07 18:35:19
196,{216},Luena,-11.7833,19.9167,66.02,92,100,6.67,AO,2021-02-07 18:35:19
197,{217},Pachino,36.7186,15.0907,66.2,42,75,5.75,IT,2021-02-07 18:35:19
198,{218},Benghazi,32.1167,20.0667,67.82,42,100,23.06,LY,2021-02-07 18:35:19
199,{219},Bengbu,32.9408,117.3608,41.88,66,100,15.26,CN,2021-02-07 18:35:19
200,{220},Krasnokamensk,50.0979,118.0369,-14.37,84,0,2.46,RU,2021-02-07 18:32:10
201,{221},Bireun,5.203,96.7009,76.77,85,83,4.27,ID,2021-02-07 18:35:20
202,{222},Pilikwe,-22.799,27.1938,67.75,87,100,6.15,BW,2021-02-07 18:35:20
203,{223},Guerrero Negro,27.9769,-114.0611,74.21,20,0,4.29,MX,2021-02-07 18:35:20
204,{224},Ereymentau,51.6199,73.1033,14.27,94,26,17.72,KZ,2021-02-07 18:35:20
205,{225},Isla Mujeres,21.2311,-86.731,84.0,82,9,8.01,MX,2021-02-07 18:35:20
206,{227},Ранковце,42.1696,22.1162,46.99,93,20,3.44,MK,2021-02-07 18:35:20
207,{228},Mae Sai,20.4335,99.8762,66.99,100,90,10.36,TH,2021-02-07 18:34:24
208,{229},Lavrentiya,65.5833,-171.0,-11.07,84,0,7.07,RU,2021-02-07 18:35:21
209,{231},Tazmalt,36.3868,4.3989,50.16,74,66,7.83,DZ,2021-02-07 18:35:21
210,{232},Wanning,18.8003,110.3967,68.4,90,15,3.49,CN,2021-02-07 18:35:21
211,{233},Viçosa,-20.7539,-42.8819,66.02,95,100,6.15,BR,2021-02-07 18:35:21
212,{234},Lianran,24.9227,102.485,48.0,100,75,2.24,CN,2021-02-07 18:30:42
213,{235},Kochi,9.9399,76.2602,75.2,83,0,4.61,IN,2021-02-07 18:35:21
214,{236},Deputatsky,69.3,139.9,-29.72,86,0,0.69,RU,2021-02-07 18:33:46
215,{237},Yala,6.3333,101.25,70.41,92,42,1.72,TH,2021-02-07 18:35:21
216,{238},Gold Coast,-28.0,153.4333,75.99,88,90,8.05,AU,2021-02-07 18:31:07
217,{240},Bonfim,3.0833,-59.95,86.0,66,40,13.8,BR,2021-02-07 18:33:31
218,{241},Ugoofaaru,5.6667,73.0,81.79,76,53,12.03,MV,2021-02-07 18:35:22
219,{242},Beringovskiy,63.05,179.3167,-1.44,89,100,14.85,RU,2021-02-07 18:35:22
220,{243},Doha,25.2867,51.5333,69.8,78,20,9.22,QA,2021-02-07 18:32:15
221,{244},Jumla,29.2747,82.1838,35.44,58,0,6.13,NP,2021-02-07 18:35:22
222,{246},Los Llanos de Aridane,28.6585,-17.9182,64.4,68,40,8.05,ES,2021-02-07 18:35:22
223,{248},Torbay,47.6666,-52.7314,34.0,55,20,27.63,CA,2021-02-07 18:35:23
224,{249},Smithers,54.7804,-127.1743,8.6,92,75,1.01,CA,2021-02-07 18:35:23
225,{250},Rabaul,-4.1967,152.1721,80.33,80,58,5.57,PG,2021-02-07 18:35:23
226,{251},Okato,-39.2,173.8833,57.99,95,3,6.06,NZ,2021-02-07 18:35:23
227,{252},Tumbes,-3.5667,-80.4414,89.6,55,40,6.91,PE,2021-02-07 18:35:23
228,{253},San Policarpo,12.1791,125.5072,79.97,84,100,18.63,PH,2021-02-07 18:33:08
229,{254},Walvis Bay,-22.9575,14.5053,64.99,82,1,6.91,NA,2021-02-07 18:35:23
230,{255},Batagay-Alyta,67.8006,130.4114,-33.21,79,0,2.57,RU,2021-02-07 18:35:23
231,{256},Chapais,49.7834,-74.8492,15.8,79,90,9.22,CA,2021-02-07 18:35:23
232,{258},Steamboat Springs,40.485,-106.8317,35.6,38,1,20.71,US,2021-02-07 18:30:44
233,{259},Hasaki,35.7333,140.8333,35.6,75,40,3.44,JP,2021-02-07 18:35:24
234,{260},Ixtapa,20.7,-105.2,75.2,64,1,6.91,MX,2021-02-07 18:35:24
235,{261},Langsa,4.4683,97.9683,74.12,89,93,1.23,ID,2021-02-07 18:35:24
236,{262},Pisco,-13.7,-76.2167,75.99,83,40,9.22,PE,2021-02-07 18:35:24
237,{264},Bud,39.447,-86.1758,14.0,52,1,7.72,US,2021-02-07 18:35:24
238,{265},Quelimane,-17.8786,36.8883,84.2,79,75,3.44,MZ,2021-02-07 18:32:28
239,{266},Goderich,43.7501,-81.7165,10.4,61,100,14.97,CA,2021-02-07 18:35:25
240,{267},Dunmore Town,25.5,-76.65,75.4,88,0,16.15,BS,2021-02-07 18:33:00
241,{268},Mazamari,-11.3258,-74.5308,84.31,62,99,0.96,PE,2021-02-07 18:35:25
242,{269},Dingle,10.9995,122.6711,75.52,91,100,9.28,PH,2021-02-07 18:35:25
243,{270},Ketchikan,55.3422,-131.6461,28.4,68,20,10.36,US,2021-02-07 18:35:17
244,{271},Richards Bay,-28.783,32.0377,75.13,89,65,2.98,ZA,2021-02-07 18:33:24
245,{273},Esperance,-33.8667,121.9,62.6,88,75,11.5,AU,2021-02-07 18:35:25
246,{274},Narsaq,60.9167,-46.05,37.4,30,42,47.18,GL,2021-02-07 18:35:25
247,{275},Aksarka,66.5606,67.7975,-16.89,88,100,29.59,RU,2021-02-07 18:33:09
248,{276},Maltahöhe,-24.8333,16.9833,83.23,14,0,10.25,NA,2021-02-07 18:35:26
249,{277},Garoowe,8.4054,48.4845,71.8,72,0,17.36,SO,2021-02-07 18:35:26
250,{279},Norman Wells,65.282,-126.8329,-27.4,75,75,2.3,CA,2021-02-07 18:35:26
251,{280},San Cristobal,7.7669,-72.225,87.8,51,40,9.22,VE,2021-02-07 18:35:26
252,{281},Oktyabr'skoye,43.0645,44.7417,26.6,100,80,6.71,RU,2021-02-07 18:35:26
253,{282},Algiers,36.7525,3.042,55.4,76,40,8.05,DZ,2021-02-07 18:35:26
254,{283},Arraial do Cabo,-22.9661,-42.0278,77.0,83,75,5.75,BR,2021-02-07 18:35:26
255,{284},Strezhevoy,60.7333,77.5889,17.6,79,75,20.13,RU,2021-02-07 18:35:27
256,{285},Padang,-0.9492,100.3543,80.6,78,40,8.05,ID,2021-02-07 18:34:03
257,{286},Urucará,-2.5364,-57.76,88.27,59,100,3.06,BR,2021-02-07 18:35:27
258,{287},Hirara,24.8,125.2833,68.5,71,91,10.8,JP,2021-02-07 18:35:27
259,{288},Kirakira,-10.4544,161.9205,79.02,80,10,7.05,SB,2021-02-07 18:35:27
260,{289},Caravelas,-17.7125,-39.2481,79.77,87,100,8.68,BR,2021-02-07 18:35:27
261,{290},Sanguéya,10.7,-14.3667,80.82,61,0,6.89,GN,2021-02-07 18:35:27
262,{291},Yomou,7.5603,-9.2653,83.32,46,90,3.74,GN,2021-02-07 18:35:27
263,{292},Suleja,9.1758,7.1808,95.0,24,84,4.61,NG,2021-02-07 18:33:10
264,{293},Amahai,-3.3333,128.9167,79.16,83,100,2.59,ID,2021-02-07 18:35:28
265,{294},Pangnirtung,66.1451,-65.7125,33.8,37,20,11.5,CA,2021-02-07 18:35:14
266,{295},Livadiya,42.8692,132.6764,6.42,87,35,16.17,RU,2021-02-07 18:35:28
267,{296},Severo-Kuril'sk,50.6789,156.125,15.85,87,27,11.21,RU,2021-02-07 18:35:28
268,{297},Kariba,-16.5167,28.8,75.24,86,100,4.36,ZW,2021-02-07 18:35:28
269,{298},Emerald,-23.5333,148.1667,78.8,89,40,4.61,AU,2021-02-07 18:35:28
270,{299},Hong Kong,22.2855,114.1577,68.0,85,0,9.48,HK,2021-02-07 18:33:55
271,{300},Vila Velha,-20.3297,-40.2925,71.6,94,90,3.44,BR,2021-02-07 18:35:28
272,{301},Dhidhdhoo,6.8833,73.1,81.3,75,100,10.25,MV,2021-02-07 18:35:29
273,{302},Imbituba,-28.24,-48.6703,82.4,51,20,14.97,BR,2021-02-07 18:35:29
274,{303},Pacific Grove,36.6177,-121.9166,55.99,76,1,3.44,US,2021-02-07 18:34:15
275,{304},Faanui,-16.4833,-151.75,80.96,76,5,11.86,PF,2021-02-07 18:34:12
276,{305},Betamcherla,15.4667,78.1667,68.79,54,100,4.97,IN,2021-02-07 18:35:29
277,{307},Honiara,-9.4333,159.95,77.85,81,100,3.85,SB,2021-02-07 18:35:29
278,{308},College,64.8569,-147.8028,-15.0,83,20,2.91,US,2021-02-07 18:35:29
279,{309},Zhigansk,66.7697,123.3711,-32.58,80,10,10.09,RU,2021-02-07 18:35:29
280,{310},Sulangan,11.1373,123.7228,80.62,82,100,18.14,PH,2021-02-07 18:35:30
281,{311},Rome,43.2128,-75.4557,28.0,80,90,11.21,US,2021-02-07 18:32:05
282,{312},Riyadh,24.6877,46.7219,60.8,51,0,10.36,SA,2021-02-07 18:35:06
283,{313},Yulara,-25.2406,130.9889,75.2,33,0,8.05,AU,2021-02-07 18:33:46
284,{314},Jinxiang,27.4327,120.6062,57.24,84,75,6.33,CN,2021-02-07 18:35:30
285,{315},Chāmpua,22.0833,85.6667,56.43,41,0,3.91,IN,2021-02-07 18:35:30
286,{316},Kottagūdem,17.55,80.6333,65.05,68,21,3.98,IN,2021-02-07 18:35:30
287,{317},Diamantino,-14.4086,-56.4461,87.8,45,16,4.72,BR,2021-02-07 18:35:30
288,{318},Broome,42.2506,-75.833,33.01,86,90,6.91,US,2021-02-07 18:35:30
289,{319},Riberalta,-10.9833,-66.1,82.4,83,75,9.22,BO,2021-02-07 18:35:30
290,{320},Cabo San Lucas,22.8909,-109.9124,78.8,64,40,8.05,MX,2021-02-07 18:34:42
291,{321},Waddān,29.1614,16.139,73.74,18,100,10.78,LY,2021-02-07 18:35:31
292,{322},Umm Kaddadah,13.6017,26.6876,66.67,25,0,13.44,SD,2021-02-07 18:35:31
293,{323},Río Gallegos,-51.6226,-69.2181,71.6,28,0,19.57,AR,2021-02-07 18:31:23
294,{324},Constantine,36.365,6.6147,46.4,76,40,9.22,DZ,2021-02-07 18:35:31
295,{326},Ludvika,60.1496,15.1878,15.8,86,20,8.05,SE,2021-02-07 18:35:31
296,{327},Castro,-24.7911,-50.0119,76.24,47,0,3.47,BR,2021-02-07 18:35:31
297,{328},Xingyi,24.1877,102.817,48.38,97,100,2.64,CN,2021-02-07 18:35:32
298,{329},Faya,18.3851,42.4509,57.2,62,0,7.81,SA,2021-02-07 18:35:17
299,{330},Maningrida,-12.0667,134.2667,77.2,90,100,8.59,AU,2021-02-07 18:35:32
300,{331},Dunedin,-45.8742,170.5036,62.01,83,97,2.84,NZ,2021-02-07 18:35:32
301,{332},La Santisima Trinidad,-14.8333,-64.9,89.6,62,75,4.61,BO,2021-02-07 18:35:30
302,{333},Idritsa,56.3316,28.8988,5.56,95,89,4.47,RU,2021-02-07 18:35:32
303,{334},Vostok,46.4856,135.8833,-14.22,90,100,2.93,RU,2021-02-07 18:35:32
304,{335},Manta,-0.95,-80.7333,84.2,79,75,5.75,EC,2021-02-07 18:31:01
305,{336},Samarai,-10.6167,150.6667,81.77,77,100,5.19,PG,2021-02-07 18:35:32
306,{338},Portoferraio,42.8115,10.3146,55.0,76,0,2.3,IT,2021-02-07 18:35:33
307,{339},Ampanihy,-24.7,44.75,76.32,84,0,9.71,MG,2021-02-07 18:35:33
308,{340},Pangody,65.85,74.4859,-1.25,92,100,20.42,RU,2021-02-07 18:35:33
309,{341},Torrington,41.8007,-73.1212,28.0,87,100,1.99,US,2021-02-07 18:35:33
310,{342},Ouadda,8.0777,22.4007,71.04,21,88,7.78,CF,2021-02-07 18:35:33
311,{343},Trelew,-43.249,-65.3051,63.82,42,79,13.53,AR,2021-02-07 18:31:38
312,{344},Murmino,54.6036,40.0544,4.46,93,100,11.21,RU,2021-02-07 18:35:33
313,{345},Saldanha,-33.0117,17.9442,66.2,63,0,20.71,ZA,2021-02-07 18:35:33
314,{346},Castlemaine,-37.0667,144.2167,52.0,85,38,5.99,AU,2021-02-07 18:35:34
315,{348},Klaksvík,62.2266,-6.589,35.6,69,20,13.8,FO,2021-02-07 18:35:34
316,{349},Leh,34.1667,77.5833,13.06,57,0,1.34,IN,2021-02-07 18:35:34
317,{350},Gafanha da Encarnação,40.6181,-8.733,53.01,100,75,11.5,PT,2021-02-07 18:35:34
318,{351},Progreso,21.2833,-89.6667,88.0,58,75,11.81,MX,2021-02-07 18:35:34
319,{352},Ribeira Grande,38.5167,-28.7,60.8,72,40,16.11,PT,2021-02-07 18:35:34
320,{353},Newport,51.5877,-2.9984,35.01,74,74,24.23,GB,2021-02-07 18:35:34
321,{354},Khor,47.8861,134.9464,-14.96,89,97,7.36,RU,2021-02-07 18:35:34
322,{355},Shitkino,56.3703,98.3543,21.7,94,22,5.91,RU,2021-02-07 18:35:34
323,{356},Ahipara,-35.1667,173.1667,61.61,83,17,8.16,NZ,2021-02-07 18:35:35
324,{358},Tevriz,57.509,72.4042,3.16,91,100,13.89,RU,2021-02-07 18:35:35
325,{359},Cabangahan,9.0781,122.9469,78.8,94,90,4.61,PH,2021-02-07 18:35:35
326,{360},Lyuban',52.7985,28.0048,6.04,92,100,7.56,BY,2021-02-07 18:35:35
327,{361},Bengkulu,-3.8004,102.2655,76.05,85,100,6.93,ID,2021-02-07 18:34:36
328,{362},Mulegé,26.8833,-111.9833,74.28,20,0,5.17,MX,2021-02-07 18:35:35
329,{363},Macusani,-14.0833,-70.4333,51.44,59,64,8.88,PE,2021-02-07 18:35:35
330,{364},Santa Cruz de la Sierra,-17.8,-63.1667,91.4,49,75,11.5,BO,2021-02-07 18:35:35
331,{365},Thyborøn,56.6985,8.2124,27.0,86,100,10.0,DK,2021-02-07 18:35:36
332,{366},Areosa,41.7178,-8.8571,52.0,100,90,19.57,PT,2021-02-07 18:35:36
333,{367},Bintulu,3.1667,113.0333,77.0,94,40,3.44,MY,2021-02-07 18:35:36
334,{368},Sohag,26.557,31.6948,68.0,49,0,4.61,EG,2021-02-07 18:35:36
335,{369},Tual,-5.6667,132.75,83.52,79,100,18.7,ID,2021-02-07 18:35:36
336,{371},Virginia Beach,36.8529,-75.978,39.99,98,100,3.0,US,2021-02-07 18:31:31
337,{372},Al Bardīyah,31.7561,25.0865,64.22,65,100,10.63,LY,2021-02-07 18:35:36
338,{373},Moose Factory,51.2585,-80.6094,-5.8,59,90,10.36,CA,2021-02-07 18:35:36
339,{374},Fairview,40.8126,-73.999,33.8,86,90,9.22,US,2021-02-07 18:35:37
340,{375},Piranshahr,36.701,45.1413,37.62,77,12,5.21,IR,2021-02-07 18:35:37
341,{376},Munger,25.3833,86.4667,55.9,63,0,4.94,IN,2021-02-07 18:35:37
342,{377},Kieta,-6.2167,155.6333,79.61,78,42,3.89,PG,2021-02-07 18:35:37
343,{378},Tazovsky,67.4667,78.7,-11.45,90,100,19.28,RU,2021-02-07 18:35:37
344,{379},Santo Antônio do Leverger,-15.8656,-56.0767,87.8,45,75,5.75,BR,2021-02-07 18:35:37
345,{380},Grootfontein,-19.5667,18.1167,66.2,94,100,1.14,NA,2021-02-07 18:35:37
346,{381},Butajīra,8.1167,38.3667,58.86,73,52,6.55,ET,2021-02-07 18:35:37
347,{382},Raduzhny,62.0961,77.475,11.17,94,100,14.05,RU,2021-02-07 18:35:37
348,{383},Texistepeque,14.1333,-89.5,87.8,45,0,3.42,SV,2021-02-07 18:35:38
349,{384},Maţāy,28.419,30.7792,59.76,43,14,4.7,EG,2021-02-07 18:35:38
350,{385},Scarborough,54.2797,-0.4044,34.0,73,100,10.0,GB,2021-02-07 18:35:38
351,{386},Yangi Marg`ilon,40.4272,71.7189,44.8,84,99,2.19,UZ,2021-02-07 18:33:07
352,{387},Nioro,13.35,-15.75,86.32,13,99,7.36,GM,2021-02-07 18:35:38
353,{388},Fasa,28.9383,53.6482,57.2,62,75,13.8,IR,2021-02-07 18:35:02
354,{389},Olean,42.0776,-78.4297,23.0,73,90,6.91,US,2021-02-07 18:35:38
355,{390},‘Ewa Beach,21.3156,-158.0072,64.4,72,1,3.44,US,2021-02-07 18:35:38
356,{391},Grindavik,63.8424,-22.4338,32.0,74,40,13.8,IS,2021-02-07 18:35:39
357,{392},Tomatlán,19.9333,-105.25,87.69,41,0,8.19,MX,2021-02-07 18:35:39
358,{393},Touros,-5.1989,-35.4608,87.8,58,40,17.27,BR,2021-02-07 18:35:39
359,{394},Flinders,-34.5833,150.8552,66.0,82,58,1.01,AU,2021-02-07 18:35:39
360,{395},Yaan,7.3833,8.5667,84.24,14,98,2.19,NG,2021-02-07 18:35:39
361,{396},Salinas,36.6777,-121.6555,54.0,66,1,8.05,US,2021-02-07 18:32:32
362,{397},Iqaluit,63.7506,-68.5145,26.6,68,75,19.57,CA,2021-02-07 18:35:39
363,{398},Nālūt,30.3333,10.85,64.72,27,0,18.7,LY,2021-02-07 18:35:39
364,{399},Lompoc,34.6391,-120.4579,62.01,71,1,3.44,US,2021-02-07 18:35:39
365,{400},Mailsi,29.8003,72.1758,61.54,29,0,4.88,PK,2021-02-07 18:35:40
366,{401},Port Hawkesbury,45.6169,-61.3485,30.99,46,75,6.91,CA,2021-02-07 18:35:40
367,{402},Naze,28.3667,129.4833,57.45,64,0,8.08,JP,2021-02-07 18:35:40
368,{404},Colón,9.3592,-79.9014,91.0,66,5,8.99,PA,2021-02-07 18:35:40
369,{405},Pevek,69.7008,170.3133,-6.0,86,0,2.13,RU,2021-02-07 18:35:40
370,{406},Cam Ranh,11.9214,109.1591,77.0,69,20,9.22,VN,2021-02-07 18:35:40
371,{407},Carnarvon,-24.8667,113.6333,78.8,100,40,13.8,AU,2021-02-07 18:35:40
372,{408},Kumul,42.8,93.45,31.24,79,9,5.28,CN,2021-02-07 18:34:11
373,{409},Manokwari,-0.8667,134.0833,78.49,80,100,3.2,ID,2021-02-07 18:35:41
374,{410},Zhelyabovka,45.3988,34.7578,30.96,96,100,12.06,UA,2021-02-07 18:35:41
375,{411},Celestún,20.8667,-90.4,79.63,69,0,10.45,MX,2021-02-07 18:35:41
376,{412},Santa Maria do Pará,-1.3503,-47.5756,84.09,75,77,6.44,BR,2021-02-07 18:35:41
377,{413},Tibati,6.4667,12.6333,75.94,20,67,6.62,CM,2021-02-07 18:35:41
378,{414},Sarh,9.1429,18.3923,86.0,16,0,5.75,TD,2021-02-07 18:34:13
379,{415},Koungou,-12.7336,45.2042,82.4,78,75,6.91,YT,2021-02-07 18:35:41
380,{416},San Vicente,-26.6167,-54.1333,88.59,23,3,5.32,AR,2021-02-07 18:35:41
381,{417},Dongsheng,39.8161,109.9776,20.43,75,9,3.56,CN,2021-02-07 18:35:41
382,{418},Palu,-0.8917,119.8707,76.37,83,51,2.19,ID,2021-02-07 18:35:42
383,{419},Pandan,14.0453,124.1694,79.11,83,100,16.58,PH,2021-02-07 18:32:57
384,{420},Mpanda,-6.3655,31.0409,68.38,90,100,1.21,TZ,2021-02-07 18:35:42
385,{421},Davila,18.4726,120.5763,75.2,88,75,1.14,PH,2021-02-07 18:35:42
386,{422},Katsuura,35.1333,140.3,44.6,53,0,8.05,JP,2021-02-07 18:35:42
387,{423},Indore,22.7179,75.8333,53.6,47,0,5.95,IN,2021-02-07 18:35:42
388,{424},Kulhudhuffushi,6.6221,73.07,81.3,75,94,10.31,MV,2021-02-07 18:35:42
389,{425},Sémbé,1.6481,14.5806,76.73,69,76,2.48,CG,2021-02-07 18:35:42
390,{426},Thinadhoo,0.5333,72.9333,81.97,74,82,10.25,MV,2021-02-07 18:35:42
391,{427},Conway,35.0887,-92.4421,35.6,87,90,11.5,US,2021-02-07 18:34:22
392,{428},Najrān,17.4924,44.1277,68.0,34,91,4.23,SA,2021-02-07 18:35:43
393,{429},Empangeni,-28.762,31.8933,72.73,95,69,3.31,ZA,2021-02-07 18:35:43
394,{430},Yima,34.7381,111.8839,41.0,99,47,7.56,CN,2021-02-07 18:35:43
395,{431},Cayenne,4.9333,-52.3333,82.4,78,75,19.57,GF,2021-02-07 18:35:43
396,{432},São Filipe,14.8961,-24.4956,71.11,70,100,10.29,CV,2021-02-07 18:35:43
397,{433},Marawi,7.9986,124.2928,75.0,95,100,1.99,PH,2021-02-07 18:35:43
398,{434},Soc Trang,9.6033,105.98,77.0,94,40,2.3,VN,2021-02-07 18:35:43
399,{435},Cañon City,38.441,-105.2424,57.2,12,1,27.63,US,2021-02-07 18:34:35
400,{436},Zabid,14.1951,43.3152,73.42,75,47,6.85,YE,2021-02-07 18:33:27
401,{437},Gurupá,-1.405,-51.64,93.22,43,14,4.63,BR,2021-02-07 18:35:44
402,{438},Macapá,0.0389,-51.0664,89.6,66,40,9.22,BR,2021-02-07 18:35:44
403,{439},Auki,-8.7676,160.7034,78.03,85,11,6.02,SB,2021-02-07 18:35:44
404,{440},Varkaus,62.3153,27.873,16.0,86,96,9.22,FI,2021-02-07 18:35:44
405,{441},Wabana,47.6332,-52.9481,32.0,55,20,27.63,CA,2021-02-07 18:35:44
406,{442},Ostrovnoy,68.0531,39.5131,6.89,93,100,5.91,RU,2021-02-07 18:33:08
407,{443},Tākestān,36.0696,49.6959,39.2,100,82,2.3,IR,2021-02-07 18:34:11
408,{444},Langarūd,37.197,50.1535,51.8,100,90,4.61,IR,2021-02-07 18:35:45
409,{445},Roura,4.7263,-52.3274,82.4,78,75,19.57,GF,2021-02-07 18:35:45
410,{446},Wajima,37.4,136.9,33.69,89,100,20.58,JP,2021-02-07 18:35:45
411,{447},Oistins,13.0667,-59.5333,82.4,61,75,26.46,BB,2021-02-07 18:35:36
412,{448},Swedru,5.5371,-0.6998,86.0,74,20,14.97,GH,2021-02-07 18:35:45
413,{449},Ayan,56.45,138.1667,-5.53,80,100,22.3,RU,2021-02-07 18:35:45
414,{450},Tabou,4.423,-7.3528,80.02,86,41,7.18,CI,2021-02-07 18:35:45
415,{451},Cintalapa,16.6951,-93.7272,77.72,60,68,11.18,MX,2021-02-07 18:35:45
416,{452},Lingao,19.9103,109.6859,67.89,87,96,8.9,CN,2021-02-07 18:35:45
417,{453},Bandarbeyla,9.4942,50.8122,76.05,78,12,18.61,SO,2021-02-07 18:35:45
418,{454},Alekseyevsk,57.8406,108.3492,22.33,96,100,11.52,RU,2021-02-07 18:35:46
419,{455},Kavieng,-2.5744,150.7967,82.63,76,44,8.46,PG,2021-02-07 18:35:14
420,{456},Oranjemund,-28.55,16.4333,64.13,79,0,23.26,NA,2021-02-07 18:35:46
421,{457},Biltine,14.5333,20.9167,72.45,18,0,10.36,TD,2021-02-07 18:35:46
422,{458},Nandurbar,21.3667,74.25,69.3,23,0,6.02,IN,2021-02-07 18:34:20
423,{459},Baoding,38.8511,115.4903,30.79,83,0,4.45,CN,2021-02-07 18:35:46
424,{460},Moïssala,8.3404,17.7663,77.54,16,49,4.25,TD,2021-02-07 18:35:46
425,{461},Porto-Novo,6.4965,2.6036,86.0,79,20,13.8,BJ,2021-02-07 18:34:08
426,{462},Russell,32.3502,-85.1999,51.8,54,40,10.36,US,2021-02-07 18:35:42
427,{463},Iralaya,15.0,-83.2333,86.0,65,75,10.36,HN,2021-02-07 18:35:47
428,{464},Yenagoa,4.9247,6.2642,82.69,75,100,7.92,NG,2021-02-07 18:35:47
429,{465},San Jose,37.3394,-121.895,60.01,62,1,1.68,US,2021-02-07 18:31:23
430,{466},Banda Aceh,5.5577,95.3222,78.64,82,42,7.9,ID,2021-02-07 18:33:12
431,{467},Kassala,15.451,36.4,67.08,54,0,12.3,SD,2021-02-07 18:35:47
432,{468},Churapcha,62.0025,132.4325,-37.21,82,0,2.3,RU,2021-02-07 18:35:47
433,{469},Abu Samrah,35.3029,37.1841,53.28,82,2,7.96,SY,2021-02-07 18:35:47
434,{470},Belyy Yar,53.6039,91.3903,8.6,92,20,4.32,RU,2021-02-07 18:35:48
435,{471},Nantucket,41.2835,-70.0995,33.01,100,90,12.66,US,2021-02-07 18:35:48
436,{472},Coyhaique,-45.5752,-72.0662,73.4,35,0,6.91,CL,2021-02-07 18:35:13
437,{473},Paraúna,-16.9478,-50.4486,76.77,84,28,6.51,BR,2021-02-07 18:35:48
438,{474},Nyrob,60.733,56.7202,-20.56,86,100,7.23,RU,2021-02-07 18:33:09
439,{475},Isangel,-19.55,169.2667,77.4,80,13,5.37,VU,2021-02-07 18:32:01
440,{477},Sisimiut,66.9395,-53.6735,24.3,81,0,15.08,GL,2021-02-07 18:35:48
441,{478},Linjiang,41.8069,126.9078,1.42,88,67,1.41,CN,2021-02-07 18:35:48
442,{479},Lakes Entrance,-37.8811,147.981,54.0,75,3,5.01,AU,2021-02-07 18:35:49
443,{480},Sabang,5.8933,95.3214,81.43,79,35,11.25,ID,2021-02-07 18:35:18
444,{481},San Pedro de Cajas,-11.2511,-75.8617,52.81,67,100,5.46,PE,2021-02-07 18:35:49
445,{483},Aksu,41.1231,80.2644,30.65,82,85,1.74,CN,2021-02-07 18:35:49
446,{485},Kununurra,-15.7667,128.7333,78.8,83,75,6.04,AU,2021-02-07 18:35:49
447,{486},Pangoa,-12.1167,-73.0,85.24,59,100,2.1,PE,2021-02-07 18:35:49
448,{487},Imeni Poliny Osipenko,52.4201,136.4853,-0.74,88,100,1.28,RU,2021-02-07 18:35:49
449,{488},Hervey Bay,-25.2986,152.8535,80.01,87,23,1.01,AU,2021-02-07 18:35:50
450,{490},Vanimo,-2.6741,141.3028,77.11,86,100,3.11,PG,2021-02-07 18:35:16
451,{491},Ilebo,-4.3167,20.5833,73.4,84,95,0.16,CD,2021-02-07 18:35:50
452,{492},Ciudad del Maíz,22.4,-99.6,71.01,32,10,4.0,MX,2021-02-07 18:35:50
453,{493},Vilyuysk,63.7553,121.6247,-20.58,86,100,11.23,RU,2021-02-07 18:35:50
454,{494},Alofi,-19.0595,-169.9187,78.8,94,100,5.75,NU,2021-02-07 18:35:50
455,{495},Unidos,8.5942,123.668,76.06,89,100,1.97,PH,2021-02-07 18:35:50
456,{496},Talnakh,69.4865,88.3972,-21.93,73,7,3.4,RU,2021-02-07 18:35:50
457,{497},Bambanglipuro,-7.95,110.2833,76.12,90,100,4.81,ID,2021-02-07 18:35:51
458,{498},Taksimo,56.3444,114.8794,-5.21,87,100,0.96,RU,2021-02-07 18:35:51
459,{499},Moree,-29.4667,149.85,66.2,77,0,6.91,AU,2021-02-07 18:35:51
460,{500},Château-Thierry,49.05,3.4,32.0,91,85,5.01,FR,2021-02-07 18:35:51
461,{501},Manaure,11.7751,-72.4445,86.72,52,100,19.53,CO,2021-02-07 18:35:51
462,{502},Katherine,-14.4667,132.2667,75.2,100,90,6.91,AU,2021-02-07 18:35:51
463,{503},Wairoa,-39.0333,177.3667,54.0,96,4,4.0,NZ,2021-02-07 18:35:51
464,{504},Baghdad,33.3406,44.4009,59.0,82,0,3.44,IQ,2021-02-07 18:32:03
465,{505},Chunoyar,57.4467,97.3217,21.49,95,13,5.66,RU,2021-02-07 18:35:51
466,{506},Ust'-Koksa,50.2696,85.6108,19.31,89,48,2.98,RU,2021-02-07 18:35:51
467,{507},Tabas,33.5959,56.9244,57.2,23,100,2.3,IR,2021-02-07 18:35:52
468,{508},Osoyoos,49.0331,-119.4524,33.8,51,62,3.44,CA,2021-02-07 18:35:52
469,{510},Nanortalik,60.1432,-45.2371,31.19,89,74,14.07,GL,2021-02-07 18:35:52
470,{511},Farafangana,-22.8167,47.8333,79.83,86,100,13.6,MG,2021-02-07 18:35:46
471,{512},Atascocita,29.9988,-95.1766,59.0,62,0,1.01,US,2021-02-07 18:35:53
472,{513},Kismayo,-0.3582,42.5454,77.58,82,0,18.32,SO,2021-02-07 18:35:53
473,{514},Kysyl-Syr,63.8986,122.7617,-26.03,84,93,11.72,RU,2021-02-07 18:35:53
474,{515},Dutlwe,-23.9833,23.9,66.79,90,0,6.49,BW,2021-02-07 18:35:53
475,{516},Isiolo,0.3546,37.5822,73.26,63,100,4.59,KE,2021-02-07 18:35:53
476,{517},Freeport,40.6576,-73.5832,33.01,86,90,13.8,US,2021-02-07 18:33:41
477,{518},Shahr-e Bābak,30.1165,55.1186,49.46,63,98,15.12,IR,2021-02-07 18:35:53
478,{519},Oleksandrivka,48.9634,32.2349,13.15,93,100,9.17,UA,2021-02-07 18:35:53
479,{520},Rio Claro,-22.4114,-47.5614,86.0,45,40,9.22,BR,2021-02-07 18:31:11
480,{521},Quatre Cocos,-20.2078,57.7625,80.6,74,75,6.91,MU,2021-02-07 18:35:54
481,{522},Dundee,56.5,-2.9667,35.6,51,0,23.02,GB,2021-02-07 18:35:54
482,{523},Frunze,48.6686,38.7544,17.89,74,87,6.4,UA,2021-02-07 18:35:54
483,{524},Narganá,9.4428,-78.5906,81.28,72,72,11.14,PA,2021-02-07 18:35:54
484,{525},Vizinga,61.0749,50.1031,-18.49,85,100,8.97,RU,2021-02-07 18:35:54
485,{526},Cabra,37.4725,-4.4421,48.0,76,91,10.04,ES,2021-02-07 18:35:54
486,{527},Östersund,63.1792,14.6357,15.8,92,90,11.5,SE,2021-02-07 18:35:54
487,{528},California City,35.1258,-117.9859,57.99,26,1,3.44,US,2021-02-07 18:35:54
488,{529},Cuamba,-14.8031,36.5372,72.14,91,92,2.59,MZ,2021-02-07 18:35:55
489,{530},Kuytun,54.3419,101.5036,9.97,95,87,5.59,RU,2021-02-07 18:35:55
490,{531},Nhulunbuy,-12.2333,136.7667,80.6,83,40,9.22,AU,2021-02-07 18:35:55
491,{534},Sackville,45.9188,-64.3846,30.99,40,100,6.91,CA,2021-02-07 18:35:55
492,{535},Sayyan,15.1718,44.3244,49.3,51,0,7.31,YE,2021-02-07 18:35:55
493,{536},Melfort,52.8667,-104.6177,-31.0,61,3,6.91,CA,2021-02-07 18:35:55
494,{537},Majene,-3.5403,118.9707,77.65,85,100,2.51,ID,2021-02-07 18:35:55
495,{538},Kristinehamn,59.3098,14.1081,16.0,92,0,8.05,SE,2021-02-07 18:35:56
496,{539},Buraidah,26.326,43.975,55.4,94,40,5.75,SA,2021-02-07 18:34:20
497,{540},Den Helder,52.9599,4.7593,25.0,80,90,32.21,NL,2021-02-07 18:35:56
498,{541},Te Anau,-45.4167,167.7167,55.99,77,100,2.98,NZ,2021-02-07 18:35:56
499,{542},Tripoli,32.8752,13.1875,68.77,45,94,14.47,LY,2021-02-07 18:31:30
500,{543},Kondinskoye,59.6481,67.41,-0.6,92,100,13.96,RU,2021-02-07 18:35:56
501,{544},Coolidge,32.9778,-111.5176,64.0,20,1,4.61,US,2021-02-07 18:35:56
502,{545},Serebryanyy Bor,56.8,124.8,-28.93,84,33,1.41,RU,2021-02-07 18:35:56
503,{546},Synya,65.3718,58.0387,-20.94,87,100,10.09,RU,2021-02-07 18:35:56
504,{547},Codrington,-38.2667,141.9667,56.37,70,100,9.57,AU,2021-02-07 18:35:57
505,{548},Sambava,-14.2667,50.1667,78.33,83,100,0.45,MG,2021-02-07 18:35:57
506,{549},Beyneu,45.3167,55.2,28.89,89,100,16.93,KZ,2021-02-07 18:35:57
507,{551},Ukiah,39.1502,-123.2078,59.0,66,1,0.67,US,2021-02-07 18:35:57
508,{552},Ust-Maya,60.4167,134.5333,-32.98,82,100,2.89,RU,2021-02-07 18:34:03
509,{553},Novo Aripuanã,-5.1206,-60.3797,83.75,84,99,1.88,BR,2021-02-07 18:35:57
510,{554},Humaitá,-7.5061,-63.0208,89.6,60,63,2.82,BR,2021-02-07 18:35:57
511,{555},Błonie,52.1985,20.6171,16.0,92,85,17.6,PL,2021-02-07 18:35:58
512,{556},Yamada,39.4667,141.95,24.57,87,0,9.64,JP,2021-02-07 18:35:58
513,{557},Gaza,31.5,34.4667,60.01,100,38,7.47,PS,2021-02-07 18:35:58
514,{558},Portland,45.5234,-122.6762,45.0,76,75,3.44,US,2021-02-07 18:35:58
515,{560},Chai Badan,15.2,101.1333,80.01,58,0,2.51,TH,2021-02-07 18:35:58
516,{561},Oud-Beijerland,51.8242,4.4125,24.01,86,90,17.27,NL,2021-02-07 18:35:58
517,{562},Geraldton,-28.7667,114.6,69.8,78,40,10.36,AU,2021-02-07 18:31:11
518,{563},Pecos,31.4229,-103.4932,73.4,8,1,17.27,US,2021-02-07 18:35:58
519,{564},Van,38.4924,43.3831,30.2,93,40,2.3,TR,2021-02-07 18:34:07
520,{565},Gonder,12.6,37.4667,52.65,41,0,4.9,ET,2021-02-07 18:35:59
521,{566},Isetskoye,56.4858,65.3226,-2.79,86,5,12.88,RU,2021-02-07 18:35:59
522,{567},São João da Barra,-21.6403,-41.0511,73.4,94,90,6.91,BR,2021-02-07 18:35:59
523,{568},Bogorodskoye,56.55,37.8833,-4.88,91,33,6.15,RU,2021-02-07 18:35:59
524,{569},Sangar,63.9242,127.4739,-33.2,79,0,3.53,RU,2021-02-07 18:35:59
525,{570},Soe,-9.8607,124.284,66.18,98,100,3.98,ID,2021-02-07 18:36:00
526,{571},Coquimbo,-29.9533,-71.3436,69.8,56,0,11.5,CL,2021-02-07 18:36:00
527,{572},Brisbane,-27.4679,153.0281,73.99,73,75,11.5,AU,2021-02-07 18:32:54
528,{573},Tautira,-17.7333,-149.15,82.4,65,75,3.44,PF,2021-02-07 18:36:00
529,{574},Mudanjiang,44.5833,129.6,-8.84,86,14,5.77,CN,2021-02-07 18:36:00
530,{575},Nishinomiya,34.7167,135.3333,42.01,94,2,10.07,JP,2021-02-07 18:36:01
531,{576},Nelidovo,56.2211,32.7774,6.69,95,88,6.08,RU,2021-02-07 18:33:08
532,{577},Constitución,-35.3333,-72.4167,66.72,67,3,8.59,CL,2021-02-07 18:35:56
533,{578},Nikel,69.4128,30.222,21.2,73,75,19.57,RU,2021-02-07 18:36:01
534,{579},Cacoal,-11.4386,-61.4472,83.25,81,52,4.03,BR,2021-02-07 18:36:01
535,{580},Rovaniemi,66.5,25.7167,12.2,92,0,9.22,FI,2021-02-07 18:34:10
536,{581},Jutaí,-5.1833,-68.9,83.3,85,100,2.48,BR,2021-02-07 18:36:01
537,{582},Sur,22.5667,59.5289,65.1,73,0,4.56,OM,2021-02-07 18:36:01
538,{583},Barra do Garças,-15.89,-52.2567,86.0,66,40,4.61,BR,2021-02-07 18:36:02
539,{584},Baharly,38.4362,57.4316,58.06,55,100,2.86,TM,2021-02-07 18:36:02
540,{585},Kuril'sk,45.2333,147.8833,13.48,92,100,14.05,RU,2021-02-07 18:36:02
541,{586},Warmbad,-28.45,18.7333,83.86,26,0,20.22,NA,2021-02-07 18:36:02
542,{587},Hailar,49.2,119.7,-16.01,87,2,3.2,CN,2021-02-07 18:36:02
543,{589},Poopó,-18.3667,-66.9667,61.5,39,100,4.63,BO,2021-02-07 18:36:02
544,{590},Tay Ninh,11.3,106.1,78.08,70,85,3.53,VN,2021-02-07 18:36:02
545,{591},Launceston,-41.45,147.1667,55.0,66,90,6.91,AU,2021-02-07 18:31:43
546,{592},Shenjiamen,29.9576,122.298,50.54,86,100,16.22,CN,2021-02-07 18:34:31
547,{593},Ouallam,14.3188,2.0866,83.35,15,0,10.07,NE,2021-02-07 18:36:03
548,{594},Iranshahr,27.2025,60.6848,62.6,23,0,1.61,IR,2021-02-07 18:36:03
549,{596},Nkhotakota,-12.9274,34.2961,76.28,81,100,2.73,MW,2021-02-07 18:36:03
550,{597},Jalu,29.0331,21.5482,67.44,26,92,13.69,LY,2021-02-07 18:36:03
551,{598},Yar,58.249,52.1026,-14.26,88,100,11.54,RU,2021-02-07 18:36:04
552,{599},Dzaoudzi,-12.7887,45.2699,82.4,78,75,6.91,YT,2021-02-07 18:36:04
553,{600},Finschhafen,-6.6024,147.8681,81.21,79,62,6.78,PG,2021-02-07 18:36:04
554,{602},São Gabriel da Cachoeira,-0.1303,-67.0892,87.8,70,40,4.61,BR,2021-02-07 18:36:04
555,{603},Marabu,4.4148,114.0089,78.8,94,40,2.3,MY,2021-02-07 18:33:57
556,{604},Maragogi,-9.0122,-35.2225,82.42,72,72,12.97,BR,2021-02-07 18:36:04
557,{605},Kaka,37.3482,59.6143,53.65,58,7,2.1,TM,2021-02-07 18:36:04
558,{606},Ritchie,-29.038,24.6028,77.0,61,0,6.91,ZA,2021-02-07 18:34:16
559,{607},Ciudad del Carmen,18.6333,-91.8333,78.8,73,20,3.44,MX,2021-02-07 18:35:39
560,{608},Paamiut,61.994,-49.6678,29.07,85,0,2.53,GL,2021-02-07 18:36:05
561,{609},Juan Lacaze,-34.4342,-57.4381,86.0,45,20,10.36,UY,2021-02-07 18:36:05
562,{610},Dudinka,69.4058,86.1778,-29.42,81,50,11.65,RU,2021-02-07 18:32:09
563,{611},Gryazovets,58.88,40.2525,-16.01,89,13,7.58,RU,2021-02-07 18:36:05
564,{612},Pāsighāt,28.0667,95.3333,59.38,46,0,3.09,IN,2021-02-07 18:36:05
565,{614},Ballitoville,-29.539,31.2144,78.01,83,75,6.91,ZA,2021-02-07 18:36:05
566,{615},Marzuq,14.4,46.4667,62.38,66,0,1.43,YE,2021-02-07 18:32:52
567,{616},Waipawa,-41.4122,175.5153,64.4,82,75,18.41,NZ,2021-02-07 18:36:05
568,{619},Loukhi,66.0764,33.0381,4.86,94,100,6.51,RU,2021-02-07 18:36:06
569,{620},Ouésso,1.6136,16.0517,78.55,61,87,3.67,CG,2021-02-07 18:34:56
570,{621},Benicarló,40.4165,0.4271,50.0,47,30,1.01,ES,2021-02-07 18:36:06
571,{623},Great Yarmouth,52.6083,1.7305,32.0,93,75,26.46,GB,2021-02-07 18:36:06
572,{624},Kasongo-Lunda,-6.4667,16.8167,75.13,75,99,2.04,CD,2021-02-07 18:36:06
573,{625},Jiblah,13.9216,44.1467,58.15,74,22,2.13,YE,2021-02-07 18:36:06
574,{627},Dicamay,16.7561,122.0037,68.31,92,1,1.83,PH,2021-02-07 18:36:07
575,{628},Międzychód,52.5988,15.897,21.0,47,100,11.99,PL,2021-02-07 18:36:07
576,{629},Cravo Norte,6.3017,-70.2041,93.7,38,100,9.15,CO,2021-02-07 18:36:07
577,{630},Barra,-11.0894,-43.1417,81.21,73,95,8.14,BR,2021-02-07 18:33:33
