,City ID,City,Lat,Lng,Max Temp,Humidity,Cloudiness,Wind Speed,Country,Date
0,{0},Crib Point,-38.35,145.2,86.0,48,0,4.23,AU,2021-02-10 02:29:49
1,{1},Barrow,71.2906,-156.7887,-22.0,69,1,17.27,US,2021-02-10 02:24:57
2,{2},Lata,40.1629,-8.3327,55.0,93,100,7.0,PT,2021-02-10 02:29:49
3,{3},Progreso,21.2833,-89.6667,77.0,78,40,14.97,MX,2021-02-10 02:29:49
4,{5},Ushuaia,-54.8,-68.3,62.6,72,0,4.61,AR,2021-02-10 02:29:50
5,{6},Hithadhoo,-0.6,73.0833,82.02,81,72,14.79,MV,2021-02-10 02:29:50
6,{7},Usogorsk,63.4106,48.6872,-14.94,88,98,3.67,RU,2021-02-10 02:29:50
7,{8},Soyo,-6.1349,12.3689,77.29,87,100,5.06,AO,2021-02-10 02:29:50
8,{9},Shitanjing,39.2342,106.3439,34.99,66,0,13.13,CN,2021-02-10 02:29:50
9,{10},Ust'-Omchug,61.15,149.6333,4.71,90,100,12.88,RU,2021-02-10 02:29:50
10,{11},Tasiilaq,65.6145,-37.6368,14.0,62,75,3.74,GL,2021-02-10 02:29:50
11,{13},Tuktoyaktuk,69.4541,-133.0374,-38.2,67,20,5.75,CA,2021-02-10 02:29:51
12,{15},Loa Janan,-0.583,117.095,83.71,84,92,0.6,ID,2021-02-10 02:29:51
13,{16},Abnūb,27.2696,31.1511,51.8,58,0,1.81,EG,2021-02-10 02:29:51
14,{17},Ouadda,8.0777,22.4007,62.35,28,85,5.21,CF,2021-02-10 02:29:51
15,{18},Pevek,69.7008,170.3133,-4.38,75,0,3.04,RU,2021-02-10 02:29:51
16,{19},Sioux Lookout,50.1001,-91.917,-18.4,76,1,4.61,CA,2021-02-10 02:29:51
17,{20},‘Āhuimanu,21.4447,-157.8378,75.2,49,1,16.11,US,2021-02-10 02:29:51
18,{21},Te Anau,-45.4167,167.7167,55.33,75,100,6.38,NZ,2021-02-10 02:29:51
19,{22},Mataura,-46.1927,168.8643,49.86,93,100,10.63,NZ,2021-02-10 02:29:52
20,{23},Hobart,-42.8794,147.3294,72.0,42,20,3.44,AU,2021-02-10 02:26:41
21,{24},Usinsk,65.9939,57.5281,-23.73,87,94,4.47,RU,2021-02-10 02:29:52
22,{25},Kostyantynivka,48.5277,37.7069,32.61,96,94,6.82,UA,2021-02-10 02:29:42
23,{26},Albany,42.6001,-73.9662,25.0,62,0,1.99,US,2021-02-10 02:25:24
24,{27},Larap,14.299,122.6504,75.04,90,100,11.3,PH,2021-02-10 02:29:52
25,{28},Kapaa,22.0752,-159.319,71.6,49,75,14.97,US,2021-02-10 02:27:35
26,{29},Hambantota,6.1241,81.1185,73.4,88,75,8.05,LK,2021-02-10 02:29:52
27,{30},Sorong,-0.8833,131.25,85.12,72,100,6.67,ID,2021-02-10 02:29:52
28,{31},Puerto Ayora,-0.7393,-90.3518,78.01,91,79,4.52,EC,2021-02-10 02:29:53
29,{33},Ust-Maya,60.4167,134.5333,-12.33,88,19,2.01,RU,2021-02-10 02:29:53
30,{34},Iqaluit,63.7506,-68.5145,1.4,85,75,3.24,CA,2021-02-10 02:28:12
31,{35},Cape Town,-33.9258,18.4232,68.0,82,0,12.66,ZA,2021-02-10 02:29:05
32,{36},Punta Arenas,-53.15,-70.9167,62.6,63,0,2.3,CL,2021-02-10 02:29:53
33,{37},Bredasdorp,-34.5322,20.0403,55.4,88,87,2.3,ZA,2021-02-10 02:29:53
34,{38},Yellowknife,62.456,-114.3525,-9.0,77,90,11.5,CA,2021-02-10 02:28:27
35,{39},Cherskiy,68.75,161.3,-2.25,85,0,2.66,RU,2021-02-10 02:29:53
36,{40},Iskateley,67.6803,53.1512,-11.33,90,100,3.06,RU,2021-02-10 02:29:53
37,{41},Saint-Félicien,48.6501,-72.4491,1.4,78,40,1.12,CA,2021-02-10 02:29:54
38,{42},Hilo,19.7297,-155.09,71.6,68,75,14.97,US,2021-02-10 02:29:15
39,{43},Katsuura,35.1333,140.3,51.01,29,75,4.61,JP,2021-02-10 02:29:54
40,{44},Sembakung,3.8167,117.25,77.0,94,75,4.61,ID,2021-02-10 02:29:54
41,{45},Olinda,-8.0089,-34.8553,78.8,73,40,5.75,BR,2021-02-10 02:29:06
42,{46},Thompson,55.7435,-97.8558,-31.0,68,1,5.75,CA,2021-02-10 02:29:54
43,{47},Khatanga,71.9667,102.5,-13.92,84,0,7.65,RU,2021-02-10 02:29:54
44,{48},Amga,60.8953,131.9608,-12.51,86,0,1.48,RU,2021-02-10 02:29:54
45,{50},Kuliyapitiya,7.4688,80.0401,75.2,64,20,10.36,LK,2021-02-10 02:29:55
46,{51},George Town,5.4112,100.3354,84.2,74,20,5.75,MY,2021-02-10 02:25:39
47,{52},Sitka,57.0531,-135.33,14.0,41,40,11.5,US,2021-02-10 02:29:55
48,{53},Avarua,-21.2078,-159.775,86.0,70,20,9.22,CK,2021-02-10 02:29:55
49,{55},Busselton,-33.65,115.3333,64.99,58,0,7.0,AU,2021-02-10 02:29:55
50,{56},Rikitea,-23.1203,-134.9692,79.41,69,52,6.31,PF,2021-02-10 02:29:55
51,{57},Tatarsk,55.219,75.9828,-14.76,89,100,8.28,RU,2021-02-10 02:29:55
52,{58},Qaanaaq,77.484,-69.3632,14.32,77,0,5.26,GL,2021-02-10 02:27:26
53,{59},Rāmhormoz,31.28,49.6035,53.6,94,100,4.61,IR,2021-02-10 02:29:56
54,{60},Pangnirtung,66.1451,-65.7125,5.5,77,0,3.22,CA,2021-02-10 02:25:14
55,{61},Jamestown,42.097,-79.2353,17.6,79,90,8.05,US,2021-02-10 02:25:23
56,{62},Lloydminster,53.2835,-110.0016,-18.4,69,20,14.97,CA,2021-02-10 02:29:56
57,{63},Mackay,-21.15,149.2,84.2,65,75,14.97,AU,2021-02-10 02:25:08
58,{64},Severobaykal'sk,55.65,109.3167,16.79,95,100,0.83,RU,2021-02-10 02:29:56
59,{65},Puerto Ayacucho,5.6639,-67.6236,82.06,58,94,11.72,VE,2021-02-10 02:29:56
60,{66},Várzea da Palma,-17.5981,-44.7308,68.27,92,1,2.06,BR,2021-02-10 02:29:56
61,{67},George Town,5.4112,100.3354,84.2,74,20,5.75,MY,2021-02-10 02:29:56
62,{69},Hong Kong,22.2855,114.1577,62.01,92,100,1.01,HK,2021-02-10 02:24:59
63,{70},Bariloche,-41.1456,-71.3082,66.2,45,0,6.91,AR,2021-02-10 02:27:19
64,{71},Chui,-33.6971,-53.4616,66.69,88,0,5.28,UY,2021-02-10 02:29:57
65,{74},Comodoro Rivadavia,-45.8667,-67.5,64.4,88,0,6.22,AR,2021-02-10 02:29:57
66,{75},Upernavik,72.7868,-56.1549,11.16,76,0,4.5,GL,2021-02-10 02:29:30
67,{76},Preobrazheniye,42.9019,133.9064,27.46,82,9,7.18,RU,2021-02-10 02:29:57
68,{78},Zhaoyuan,37.3592,120.3964,46.99,94,39,6.62,CN,2021-02-10 02:29:58
69,{79},Jinchang,38.4953,102.1739,37.49,60,0,5.88,CN,2021-02-10 02:29:58
70,{80},Paamiut,61.994,-49.6678,27.23,84,95,10.31,GL,2021-02-10 02:29:58
71,{81},Beach Park,42.4222,-87.8573,5.0,55,1,3.44,US,2021-02-10 02:29:58
72,{83},Ulaanbaatar,47.9077,106.8832,5.0,72,75,2.24,MN,2021-02-10 02:29:09
73,{84},Cabo San Lucas,22.8909,-109.9124,68.0,82,1,14.97,MX,2021-02-10 02:29:30
74,{85},Gympie,-26.1898,152.665,72.0,68,54,5.01,AU,2021-02-10 02:29:58
75,{86},Lianzhou,24.7811,112.3825,55.04,86,100,1.1,CN,2021-02-10 02:29:59
76,{87},Tuatapere,-46.1333,167.6833,52.23,91,100,12.53,NZ,2021-02-10 02:28:48
77,{88},Bongaree,-27.0797,153.1586,79.0,62,92,14.61,AU,2021-02-10 02:29:59
78,{90},Tiksi,71.6872,128.8694,-13.68,82,100,4.05,RU,2021-02-10 02:29:59
79,{91},Biswān,27.5,81.0,58.96,57,100,3.18,IN,2021-02-10 02:29:59
80,{92},Vaini,-21.2,-175.2,78.8,89,75,24.16,TO,2021-02-10 02:29:59
81,{93},Berlevåg,70.8578,29.0864,21.97,88,100,19.28,NO,2021-02-10 02:29:59
82,{94},Raudeberg,61.9875,5.1352,28.0,78,84,4.56,NO,2021-02-10 02:29:59
83,{95},Arlit,18.7369,7.3853,67.15,21,0,7.74,NE,2021-02-10 02:25:21
84,{96},Genhe,50.7833,121.5167,5.68,91,95,2.68,CN,2021-02-10 02:30:00
85,{97},Bluff,-46.6,168.3333,53.73,87,100,21.07,NZ,2021-02-10 02:30:00
86,{98},Sungai Penuh,-2.0833,101.3833,75.15,63,52,2.82,ID,2021-02-10 02:27:23
87,{99},Chokurdakh,70.6333,147.9167,-13.94,87,0,2.53,RU,2021-02-10 02:30:00
88,{100},Mayumba,-3.432,10.6554,76.55,83,98,1.16,GA,2021-02-10 02:30:00
89,{101},Polyarny,69.1989,33.4478,-13.0,77,40,2.24,RU,2021-02-10 02:30:00
90,{102},Rocha,-34.4833,-54.3333,66.06,92,84,7.14,UY,2021-02-10 02:30:00
91,{103},Labuhan,-6.8844,112.2051,82.89,76,96,8.08,ID,2021-02-10 02:30:00
92,{104},Juan de Ayolas,-27.4,-56.9,69.49,85,99,5.41,PY,2021-02-10 02:30:01
93,{105},Ribeira Grande,38.5167,-28.7,60.44,83,100,18.84,PT,2021-02-10 02:30:01
94,{106},At-Bashi,41.1702,75.8106,21.43,84,58,0.25,KG,2021-02-10 02:30:01
95,{107},Richards Bay,-28.783,32.0377,73.67,90,64,1.01,ZA,2021-02-10 02:30:02
96,{108},Provideniya,64.3833,-173.3,-2.2,71,0,24.61,RU,2021-02-10 02:30:03
97,{109},Kandrian,-6.2167,149.55,88.25,65,83,5.44,PG,2021-02-10 02:30:04
98,{110},Kahului,20.8947,-156.47,75.2,46,40,17.27,US,2021-02-10 02:30:05
99,{111},Bandarbeyla,9.4942,50.8122,72.68,72,99,17.05,SO,2021-02-10 02:30:06
100,{112},Jacksonville,30.3322,-81.6556,62.6,94,75,3.44,US,2021-02-10 02:22:19
101,{113},Norman Wells,65.282,-126.8329,-36.4,67,20,3.44,CA,2021-02-10 02:26:55
102,{114},Sept-Îles,50.2001,-66.3821,6.01,47,1,8.05,CA,2021-02-10 02:30:07
103,{115},Port Elizabeth,-33.918,25.5701,64.4,94,0,3.44,ZA,2021-02-10 02:30:07
104,{116},Kiryat Gat,31.61,34.7642,55.99,22,100,1.43,IL,2021-02-10 02:30:07
105,{117},Verāval,20.9,70.3667,69.33,44,100,10.04,IN,2021-02-10 02:30:08
106,{118},Xiaoshi,41.2971,124.1209,35.6,60,12,6.71,CN,2021-02-10 02:30:08
107,{119},Pedernales,18.0384,-71.744,76.01,58,78,8.08,DO,2021-02-10 02:30:08
108,{120},Ilulissat,69.2167,-51.1,17.6,45,0,12.66,GL,2021-02-10 02:30:08
109,{121},Örnsköldsvik,63.2909,18.7153,14.0,92,20,8.05,SE,2021-02-10 02:30:09
110,{122},Faanui,-16.4833,-151.75,82.0,73,0,13.69,PF,2021-02-10 02:30:09
111,{123},Juneau,58.3019,-134.4197,3.2,39,20,18.41,US,2021-02-10 02:30:09
112,{124},Cayenne,4.9333,-52.3333,78.8,73,20,6.91,GF,2021-02-10 02:30:10
113,{125},Durban,-29.8579,31.0292,75.99,94,75,6.78,ZA,2021-02-10 02:29:04
114,{126},Akim Swedru,5.8938,-1.0164,76.03,92,44,2.35,GH,2021-02-10 02:30:10
115,{127},Guangyuan,32.442,105.823,52.0,74,97,1.88,CN,2021-02-10 02:30:10
116,{128},Pisco,-13.7,-76.2167,71.6,78,0,8.05,PE,2021-02-10 02:30:10
117,{129},Kasur,31.1156,74.4467,50.0,100,90,4.38,PK,2021-02-10 02:30:10
118,{130},Izhma,65.0083,53.9113,-12.42,89,100,2.84,RU,2021-02-10 02:30:10
119,{132},Hualmay,-11.0964,-77.6139,70.99,82,54,5.23,PE,2021-02-10 02:27:49
120,{133},Souillac,-20.5167,57.5167,77.0,83,40,1.14,MU,2021-02-10 02:30:11
121,{134},Kumul,42.8,93.45,37.96,64,100,6.31,CN,2021-02-10 02:30:11
122,{135},Xining,36.6167,101.7667,37.04,54,63,1.74,CN,2021-02-10 02:30:11
123,{136},New Norfolk,-42.7826,147.0587,72.0,41,0,1.99,AU,2021-02-10 02:30:12
124,{137},Aykhal,66.0,111.5,-13.65,87,100,9.4,RU,2021-02-10 02:30:12
125,{138},Gorontalo,0.5412,123.0595,89.65,58,39,1.83,ID,2021-02-10 02:27:59
126,{139},Huejuquilla el Alto,22.6,-103.8667,54.73,40,0,3.74,MX,2021-02-10 02:30:12
127,{140},Atuona,-9.8,-139.0333,79.56,78,74,18.77,PF,2021-02-10 02:30:13
128,{141},Butaritari,3.0707,172.7902,81.63,82,94,15.5,KI,2021-02-10 02:27:31
129,{142},Jardim,-21.4803,-56.1381,69.76,75,61,3.51,BR,2021-02-10 02:30:13
130,{144},Mukhen,48.1,136.1,8.89,90,89,5.44,RU,2021-02-10 02:30:13
131,{145},Marzuq,14.4,46.4667,51.33,68,50,3.27,YE,2021-02-10 02:30:14
132,{146},Cidreira,-30.1811,-50.2056,74.62,80,94,17.87,BR,2021-02-10 02:30:14
133,{147},Nakhon Phanom,17.3333,104.4167,73.0,94,75,5.75,TH,2021-02-10 02:30:14
134,{148},St. George's,12.0564,-61.7485,78.8,73,20,12.66,GD,2021-02-10 02:30:14
135,{149},Ponta do Sol,32.6667,-17.1,57.99,70,69,1.01,PT,2021-02-10 02:30:14
136,{150},Caravelas,-17.7125,-39.2481,74.59,83,87,4.74,BR,2021-02-10 02:30:15
137,{151},Monrovia,6.3005,-10.7969,80.01,86,63,7.76,LR,2021-02-10 02:30:15
138,{152},Asău,46.4333,26.4,37.4,100,96,6.91,RO,2021-02-10 02:30:15
139,{153},Terekli-Mekteb,44.1671,45.8698,37.74,90,2,2.57,RU,2021-02-10 02:30:15
140,{154},Lumberton,34.6182,-79.0086,54.0,94,1,4.61,US,2021-02-10 02:28:30
141,{155},Kavieng,-2.5744,150.7967,84.58,74,75,8.05,PG,2021-02-10 02:30:15
142,{156},Nishihara,26.1842,127.7558,68.0,49,75,13.8,JP,2021-02-10 02:30:15
143,{157},Lebu,-37.6167,-73.65,60.17,86,0,12.06,CL,2021-02-10 02:30:16
144,{158},Shingū,33.7333,135.9833,50.0,40,20,16.11,JP,2021-02-10 02:30:16
145,{159},Takoradze,4.8845,-1.7554,79.47,87,53,6.49,GH,2021-02-10 02:30:16
146,{160},Buraidah,26.326,43.975,44.6,93,67,3.29,SA,2021-02-10 02:30:16
147,{162},Bengkulu,-3.8004,102.2655,83.62,64,100,4.32,ID,2021-02-10 02:30:17
148,{163},Mahébourg,-20.4081,57.7,77.0,83,40,1.14,MU,2021-02-10 02:30:17
149,{164},Faya,18.3851,42.4509,44.6,87,0,3.15,SA,2021-02-10 02:30:17
150,{165},Mar del Plata,-38.0023,-57.5575,66.0,88,75,12.66,AR,2021-02-10 02:25:51
151,{166},Saint-Augustin,51.226,-58.6502,18.88,97,100,9.57,CA,2021-02-10 02:30:17
152,{167},Yerbogachën,61.2767,108.0108,6.85,92,37,11.18,RU,2021-02-10 02:30:18
153,{168},San Borja,-14.8167,-66.85,73.51,97,100,7.18,BO,2021-02-10 02:30:18
154,{169},Marsh Harbour,26.5412,-77.0636,74.77,85,7,3.87,BS,2021-02-10 02:27:31
155,{170},Erzin,36.9559,36.2,55.0,74,6,11.99,TR,2021-02-10 02:30:18
156,{171},São Félix do Xingu,-6.6447,-51.995,70.77,96,100,1.05,BR,2021-02-10 02:30:18
157,{172},Kruisfontein,-34.0033,24.7314,61.0,94,15,3.8,ZA,2021-02-10 02:30:18
158,{174},Qaqortoq,60.7167,-46.0333,33.8,27,5,31.07,GL,2021-02-10 02:29:10
159,{175},East London,-33.0153,27.9116,69.66,83,0,3.49,ZA,2021-02-10 02:30:19
160,{177},Laguna,38.421,-121.4238,60.01,63,90,6.91,US,2021-02-10 02:30:19
161,{178},Nikolskoye,59.7035,30.7861,1.99,77,81,2.24,RU,2021-02-10 02:30:19
162,{179},Kirakira,-10.4544,161.9205,84.96,74,65,8.77,SB,2021-02-10 02:30:19
163,{180},Hermanus,-34.4187,19.2345,62.01,93,86,1.01,ZA,2021-02-10 02:30:20
164,{181},Klaksvík,62.2266,-6.589,30.2,69,99,5.75,FO,2021-02-10 02:30:20
165,{182},Reconquista,-29.15,-59.65,66.58,85,85,2.77,AR,2021-02-10 02:30:20
166,{183},Mahajanga,-15.7167,46.3167,75.2,94,20,4.61,MG,2021-02-10 02:30:20
167,{184},Bad Hofgastein,47.1667,13.1,28.0,93,100,5.14,AT,2021-02-10 02:30:20
168,{185},Lavrentiya,65.5833,-171.0,-13.25,79,0,14.56,RU,2021-02-10 02:30:21
169,{186},Marawi,7.9986,124.2928,81.0,82,2,3.0,PH,2021-02-10 02:30:21
170,{187},Nong Ki,14.6868,102.538,73.0,100,40,8.05,TH,2021-02-10 02:30:21
171,{188},Saint-Philippe,-21.3585,55.7679,77.0,65,0,4.61,RE,2021-02-10 02:30:21
172,{189},Flinders,-34.5833,150.8552,73.0,68,64,1.99,AU,2021-02-10 02:30:21
173,{190},Porbandar,21.6422,69.6093,55.4,82,20,3.44,IN,2021-02-10 02:30:21
174,{191},Baft,29.234,56.6057,38.91,52,0,2.55,IR,2021-02-10 02:30:22
175,{192},Departamento de Maldonado,-34.6667,-54.9167,68.0,88,75,11.5,UY,2021-02-10 02:30:22
176,{193},Young,-32.6833,-57.6333,66.52,87,56,10.51,UY,2021-02-10 02:30:22
177,{194},Kununurra,-15.7667,128.7333,87.8,66,75,10.36,AU,2021-02-10 02:30:22
178,{195},Bereda,43.2686,-7.5406,45.0,99,90,10.0,ES,2021-02-10 02:30:23
179,{196},Harboøre,56.6175,8.1807,23.0,87,100,18.32,DK,2021-02-10 02:30:23
180,{198},Jhīnjhak,26.5667,79.7333,63.7,52,88,3.18,IN,2021-02-10 02:30:23
181,{199},Tomatlán,19.9333,-105.25,64.0,91,0,1.81,MX,2021-02-10 02:30:23
182,{200},Castro,-24.7911,-50.0119,56.84,94,100,6.58,BR,2021-02-10 02:30:23
183,{201},Bridlington,54.0831,-0.1919,32.0,65,94,8.01,GB,2021-02-10 02:30:23
184,{202},Guerrero Negro,27.9769,-114.0611,58.6,83,0,12.95,MX,2021-02-10 02:30:24
185,{203},Kaitangata,-46.2817,169.8464,57.0,90,100,3.0,NZ,2021-02-10 02:27:26
186,{204},Venezuela,8.0,-66.0,79.48,55,12,17.34,VE,2021-02-10 02:30:24
187,{205},Ponta Delgada,37.7333,-25.6667,62.01,94,75,20.71,PT,2021-02-10 02:30:24
188,{206},Port Lincoln,-34.7333,135.8667,81.21,37,0,9.13,AU,2021-02-10 02:30:24
189,{207},Nabire,-3.3667,135.4833,89.4,54,5,6.29,ID,2021-02-10 02:30:24
190,{209},Tessalit,20.1986,1.0114,64.9,22,64,10.09,ML,2021-02-10 02:30:25
191,{210},Katobu,-4.9408,122.5276,89.19,55,38,5.66,ID,2021-02-10 02:30:25
192,{211},Ceres,37.5949,-120.9577,60.01,58,1,4.61,US,2021-02-10 02:30:25
193,{212},Blagoyevo,63.3667,47.9167,-13.83,89,100,3.67,RU,2021-02-10 02:30:25
194,{213},Yibin,28.7667,104.6238,63.27,48,0,1.21,CN,2021-02-10 02:30:25
195,{214},Margate,51.3813,1.3862,33.01,56,100,4.0,GB,2021-02-10 02:30:26
196,{215},Miami,25.7743,-80.1937,75.2,83,1,8.05,US,2021-02-10 02:22:37
197,{216},Corumbá,-19.0092,-57.6533,77.32,58,56,4.18,BR,2021-02-10 02:26:37
198,{217},Saurimo,-9.6608,20.3916,65.17,96,100,4.09,AO,2021-02-10 02:30:26
199,{218},Kāzerūn,29.6195,51.6541,53.24,41,53,1.23,IR,2021-02-10 02:30:26
200,{219},Saint Anthony,45.0205,-93.218,3.2,55,1,9.22,US,2021-02-10 02:30:27
201,{220},Borogontsy,62.6683,131.1683,-11.96,87,0,2.55,RU,2021-02-10 02:30:27
202,{221},Saskylakh,71.9167,114.0833,-25.22,82,0,8.9,RU,2021-02-10 02:30:27
203,{222},Bethel,41.3712,-73.414,23.0,93,34,4.34,US,2021-02-10 02:30:27
204,{223},Chaozhou,23.6651,116.6379,62.6,72,90,11.18,CN,2021-02-10 02:30:27
205,{224},Port Pirie,-33.1833,138.0167,93.2,21,0,4.61,AU,2021-02-10 02:30:27
206,{225},Baykit,61.67,96.37,-5.98,86,100,5.91,RU,2021-02-10 02:29:00
207,{226},Babayurt,43.6002,46.7789,41.47,87,23,3.11,RU,2021-02-10 02:30:28
208,{227},Maltahöhe,-24.8333,16.9833,70.75,63,0,2.59,NA,2021-02-10 02:30:28
209,{230},Isangel,-19.55,169.2667,84.2,74,75,9.22,VU,2021-02-10 02:27:59
210,{231},Tiznit Province,29.5833,-9.5,54.93,84,100,3.47,MA,2021-02-10 02:30:28
211,{232},Luwuk,-0.9516,122.7875,87.37,63,17,2.77,ID,2021-02-10 02:30:29
212,{233},Khanbari,27.3747,87.2039,62.85,36,46,1.72,NP,2021-02-10 02:30:29
213,{234},Parkes,-33.1333,148.1833,83.88,32,0,1.16,AU,2021-02-10 02:30:29
214,{235},Nānākuli,21.3906,-158.1547,77.0,41,1,11.5,US,2021-02-10 02:30:29
215,{236},Hasaki,35.7333,140.8333,51.01,34,75,9.22,JP,2021-02-10 02:30:29
216,{237},Valentigney,47.4639,6.8317,30.2,100,75,1.14,FR,2021-02-10 02:30:30
217,{238},Itupiranga,-5.1347,-49.3267,73.11,94,100,1.79,BR,2021-02-10 02:30:30
218,{239},Bay Roberts,47.5999,-53.2648,28.4,86,90,29.93,CA,2021-02-10 02:30:30
219,{240},Bourail,-21.5667,165.4833,81.7,67,26,10.31,NC,2021-02-10 02:30:31
220,{241},Saint Michael,45.21,-93.665,1.4,65,1,6.8,US,2021-02-10 02:30:31
221,{242},Pacific Grove,36.6177,-121.9166,54.0,82,90,4.61,US,2021-02-10 02:30:31
222,{243},Esperance,-33.8667,121.9,75.2,46,75,10.36,AU,2021-02-10 02:30:31
223,{244},Bambous Virieux,-20.3428,57.7575,77.0,83,40,1.14,MU,2021-02-10 02:30:31
224,{245},Barcelos,41.5388,-8.6151,53.6,87,75,10.36,PT,2021-02-10 02:30:31
225,{246},Gambissara,13.2382,-14.3108,74.98,18,48,6.42,SN,2021-02-10 02:30:32
226,{247},Chara,56.9064,118.2631,15.03,85,100,1.52,RU,2021-02-10 02:30:32
227,{248},Benjamin Constant,-4.3831,-70.0311,75.2,100,40,2.3,BR,2021-02-10 02:30:32
228,{249},Coyhaique,-45.5752,-72.0662,68.0,56,0,3.44,CL,2021-02-10 02:30:32
229,{250},Longyearbyen,78.2186,15.6401,17.6,86,75,2.3,SJ,2021-02-10 02:30:32
230,{251},Ndélé,8.4109,20.6473,64.35,27,92,5.39,CF,2021-02-10 02:30:32
231,{252},Roald,62.5833,6.1333,26.6,93,90,11.5,NO,2021-02-10 02:30:33
232,{253},Nanortalik,60.1432,-45.2371,27.64,86,0,16.84,GL,2021-02-10 02:30:33
233,{254},Coquimbo,-29.9533,-71.3436,60.8,88,40,6.91,CL,2021-02-10 02:30:33
234,{256},Jizan,17.3333,42.6667,71.6,88,0,3.44,SA,2021-02-10 02:27:01
235,{258},Kalmunai,7.4167,81.8167,74.03,79,68,8.7,LK,2021-02-10 02:26:13
236,{259},Yagoua,10.3411,15.2329,65.37,23,19,6.64,CM,2021-02-10 02:30:33
237,{260},Isla Mujeres,21.2311,-86.731,80.01,83,40,9.22,MX,2021-02-10 02:30:34
238,{262},Grindavik,63.8424,-22.4338,32.0,100,75,8.05,IS,2021-02-10 02:30:34
239,{263},Äänekoski,62.6946,25.818,12.2,85,90,3.44,FI,2021-02-10 02:30:34
240,{264},São Gabriel,-30.3364,-54.32,66.7,91,61,5.75,BR,2021-02-10 02:30:34
241,{265},Petatlán,17.5167,-101.2667,71.15,85,40,2.55,MX,2021-02-10 02:30:34
242,{266},La Ronge,55.1001,-105.2842,-20.2,69,100,6.91,CA,2021-02-10 02:30:35
243,{267},Carutapera,-1.195,-46.02,78.66,83,100,4.63,BR,2021-02-10 02:30:35
244,{268},Mbulu,-3.85,35.5333,59.11,98,100,5.61,TZ,2021-02-10 02:30:35
245,{269},Banda Aceh,5.5577,95.3222,84.0,67,38,7.87,ID,2021-02-10 02:30:36
246,{270},Jovellar,13.0695,123.5999,77.18,91,91,8.14,PH,2021-02-10 02:30:36
247,{271},Mālūr,13.0075,77.9378,60.8,100,40,3.62,IN,2021-02-10 02:28:31
248,{272},Sakaiminato,35.55,133.2333,51.8,57,40,9.22,JP,2021-02-10 02:30:36
249,{273},Bathsheba,13.2167,-59.5167,75.2,78,75,14.97,BB,2021-02-10 02:26:02
250,{274},Meadow Lake,34.8014,-106.5436,59.0,12,75,10.36,US,2021-02-10 02:30:36
251,{275},Arraial do Cabo,-22.9661,-42.0278,74.16,85,0,5.88,BR,2021-02-10 02:28:41
252,{276},Belgrade,44.804,20.4651,44.01,100,90,6.91,RS,2021-02-10 02:30:37
253,{277},Krasnyy Kommunar,51.9644,55.3668,-5.8,77,0,8.95,RU,2021-02-10 02:30:37
254,{278},Beli Manastir,45.77,18.6036,41.0,93,90,4.61,HR,2021-02-10 02:30:37
255,{279},Port Alfred,-33.5906,26.891,68.0,94,0,1.01,ZA,2021-02-10 02:29:48
256,{280},Severo-Kuril'sk,50.6789,156.125,27.86,89,98,9.98,RU,2021-02-10 02:30:37
257,{281},Kamiiso,41.8167,140.65,30.2,86,75,14.97,JP,2021-02-10 02:30:37
258,{282},Broken Hill,-31.95,141.4333,91.4,18,0,5.75,AU,2021-02-10 02:30:37
259,{283},Riverton,40.5219,-111.9391,43.0,87,90,10.36,US,2021-02-10 02:30:38
260,{284},Iturama,-19.7281,-50.1956,70.54,77,76,7.07,BR,2021-02-10 02:30:38
261,{285},Srednekolymsk,67.45,153.6833,-4.45,89,0,8.25,RU,2021-02-10 02:30:38
262,{286},Praia da Vitória,38.7333,-27.0667,59.0,94,75,7.45,PT,2021-02-10 02:30:38
263,{287},Gusau,12.1628,6.6614,68.23,22,74,9.04,NG,2021-02-10 02:30:38
264,{288},Kieta,-6.2167,155.6333,84.72,74,43,9.22,PG,2021-02-10 02:30:38
265,{289},Grand Gaube,-20.0064,57.6608,75.99,83,16,1.99,MU,2021-02-10 02:30:39
266,{291},Dikson,73.5069,80.5464,-26.32,87,100,9.13,RU,2021-02-10 02:30:39
267,{293},Yazoo City,32.8551,-90.4056,62.01,100,1,6.96,US,2021-02-10 02:28:00
268,{294},Hobyo,5.3505,48.5268,75.2,77,4,15.37,SO,2021-02-10 02:30:39
269,{295},Mitsamiouli,-11.3847,43.2844,82.51,77,100,16.82,KM,2021-02-10 02:30:39
270,{296},Udachny,66.4167,112.4,-20.25,84,80,8.59,RU,2021-02-10 02:30:39
271,{297},Torbay,47.6666,-52.7314,30.0,86,90,29.93,CA,2021-02-10 02:30:40
272,{298},Nome,64.5011,-165.4064,-2.2,46,1,16.11,US,2021-02-10 02:30:40
273,{299},Namatanai,-3.6667,152.4333,84.18,73,98,6.22,PG,2021-02-10 02:30:40
274,{300},Paita,-5.0892,-81.1144,74.37,82,100,8.41,PE,2021-02-10 02:30:40
275,{301},Yukamenskoye,57.8865,52.2416,-15.59,87,81,0.58,RU,2021-02-10 02:30:40
276,{302},Fort Nelson,58.8053,-122.7002,-11.2,64,90,8.05,CA,2021-02-10 02:30:40
277,{303},Biryusinsk,55.9634,97.8235,4.71,89,35,6.67,RU,2021-02-10 02:30:41
278,{304},Viedma,-40.8135,-62.9967,64.0,77,39,1.01,AR,2021-02-10 02:30:41
279,{305},Olafsvik,64.8945,-23.7142,27.03,97,100,19.66,IS,2021-02-10 02:30:41
280,{306},Kidal,18.4411,1.4078,66.78,22,0,6.11,ML,2021-02-10 02:30:41
281,{307},Kulhudhuffushi,6.6221,73.07,82.22,63,87,6.76,MV,2021-02-10 02:30:41
282,{308},Vila Velha,-20.3297,-40.2925,78.01,94,90,3.44,BR,2021-02-10 02:30:41
283,{309},Beloha,-25.1667,45.05,74.37,86,100,4.5,MG,2021-02-10 02:30:41
284,{310},Rio Grande,-32.035,-52.0986,69.01,92,39,16.31,BR,2021-02-10 02:26:53
285,{311},Arrondissement de Saint-Denis,48.9167,2.3333,28.4,80,90,12.66,FR,2021-02-10 02:30:42
286,{312},Ati,13.2154,18.3353,67.1,23,28,13.69,TD,2021-02-10 02:30:42
287,{314},Maputo,-25.9653,32.5892,77.0,94,20,6.91,MZ,2021-02-10 02:30:42
288,{315},Pūrna,19.1833,77.05,55.4,71,0,1.14,IN,2021-02-10 02:30:42
289,{316},Skibbereen,51.55,-9.2667,33.8,64,75,17.27,IE,2021-02-10 02:30:42
290,{317},Lerwick,60.1545,-1.1494,34.72,81,67,6.13,GB,2021-02-10 02:30:43
291,{318},Umm Kaddadah,13.6017,26.6876,64.0,34,59,15.19,SD,2021-02-10 02:30:43
292,{319},Marabba,12.35,32.1833,67.32,26,97,8.52,SD,2021-02-10 02:30:43
293,{320},Omsukchan,62.5333,155.8,5.88,92,100,8.68,RU,2021-02-10 02:30:43
294,{321},Talnakh,69.4865,88.3972,-9.24,90,100,3.06,RU,2021-02-10 02:30:43
295,{322},Norrtälje,59.758,18.705,21.99,85,0,2.3,SE,2021-02-10 02:30:43
296,{323},Les Cayes,18.2,-73.75,74.8,70,0,4.0,HT,2021-02-10 02:28:18
297,{324},Yar-Sale,66.8333,70.8333,-20.51,85,93,13.96,RU,2021-02-10 02:30:44
298,{325},Gatak,-7.5908,110.7044,83.14,73,76,6.04,ID,2021-02-10 02:30:44
299,{326},Minatitlán,17.9833,-94.5167,70.2,95,1,4.74,MX,2021-02-10 02:30:44
300,{327},Samarai,-10.6167,150.6667,86.4,64,99,5.68,PG,2021-02-10 02:28:25
301,{329},Yangi Marg`ilon,40.4272,71.7189,42.8,81,100,6.91,UZ,2021-02-10 02:30:44
302,{330},Carnarvon,-24.8667,113.6333,78.8,73,0,25.32,AU,2021-02-10 02:30:45
303,{331},Williston,48.147,-103.618,-6.0,58,0,9.04,US,2021-02-10 02:21:52
304,{332},Adrar,20.5022,-10.0711,59.86,28,37,8.19,MR,2021-02-10 02:30:45
305,{333},Vestmannaeyjar,63.4427,-20.2734,40.55,70,99,15.66,IS,2021-02-10 02:30:45
306,{334},Zhigansk,66.7697,123.3711,-21.19,85,8,3.56,RU,2021-02-10 02:30:45
307,{335},Mount Gambier,-37.8333,140.7667,87.8,22,0,5.75,AU,2021-02-10 02:30:45
308,{336},Airai,-8.9266,125.4092,71.73,82,100,4.12,TL,2021-02-10 02:30:45
309,{337},Tortolì,39.9256,9.6572,60.8,63,40,20.71,IT,2021-02-10 02:30:46
310,{338},Bodden Town,19.2833,-81.25,79.0,78,0,4.61,KY,2021-02-10 02:30:46
311,{339},Bara,10.3744,10.7288,73.74,17,57,11.9,NG,2021-02-10 02:30:46
312,{340},Mazagão,-0.115,-51.2894,77.0,100,90,2.3,BR,2021-02-10 02:30:46
313,{342},Redcliffe,-27.2307,153.0973,79.0,41,75,9.22,AU,2021-02-10 02:30:47
314,{343},Mokhotlong,-29.2894,29.0675,54.54,77,100,2.19,LS,2021-02-10 02:30:47
315,{344},Port-Gentil,-0.7193,8.7815,79.88,83,100,6.87,GA,2021-02-10 02:30:47
316,{345},Axum,14.1245,38.7244,44.96,92,72,4.16,ET,2021-02-10 02:30:47
317,{346},Galveston,29.3669,-94.9669,64.0,88,90,12.66,US,2021-02-10 02:30:47
318,{347},Townsville,-19.25,146.8,84.2,79,75,13.8,AU,2021-02-10 02:29:57
319,{348},Río Gallegos,-51.6226,-69.2181,59.0,77,0,4.61,AR,2021-02-10 02:26:53
320,{350},Salym,60.0625,71.4789,-24.7,86,76,4.97,RU,2021-02-10 02:29:30
321,{351},Constitución,-35.3333,-72.4167,60.22,88,0,1.28,CL,2021-02-10 02:30:48
322,{352},Padang,-0.9492,100.3543,86.0,70,20,2.3,ID,2021-02-10 02:30:48
323,{353},Muros,42.7762,-9.0603,46.0,92,68,7.0,ES,2021-02-10 02:30:46
324,{354},Eureka,40.8021,-124.1637,48.99,89,95,2.21,US,2021-02-10 02:30:48
325,{355},Inyonga,-6.7167,32.0667,64.92,98,100,0.76,TZ,2021-02-10 02:30:49
326,{356},Acarí,-15.4311,-74.6158,72.82,75,95,2.26,PE,2021-02-10 02:30:49
327,{357},Acaraú,-2.8856,-40.12,77.54,88,96,7.49,BR,2021-02-10 02:30:49
328,{358},Deputatsky,69.3,139.9,-22.4,88,14,2.77,RU,2021-02-10 02:30:49
329,{359},Chegdomyn,51.1167,133.0167,-0.78,86,52,1.81,RU,2021-02-10 02:30:49
330,{360},Nyagan,62.1406,65.3936,-27.17,85,2,3.6,RU,2021-02-10 02:30:49
331,{361},Portland,45.5234,-122.6762,39.99,60,20,5.75,US,2021-02-10 02:19:13
332,{362},Port Hardy,50.6996,-127.4199,33.8,75,90,5.75,CA,2021-02-10 02:30:00
333,{363},Praia,14.9215,-23.5087,68.0,83,0,12.66,CV,2021-02-10 02:30:50
334,{364},São Filipe,14.8961,-24.4956,69.78,77,27,10.96,CV,2021-02-10 02:30:50
335,{365},Shiyan,32.6475,110.7781,56.12,41,0,2.08,CN,2021-02-10 02:30:50
336,{366},Matara,5.9485,80.5353,77.38,74,50,6.67,LK,2021-02-10 02:30:50
337,{367},Cockburn Town,21.4612,-71.1419,77.07,80,2,20.15,TC,2021-02-10 02:27:09
338,{368},Saldanha,-33.0117,17.9442,62.6,82,0,6.91,ZA,2021-02-10 02:30:50
339,{369},Hvolsvollur,63.7533,-20.2243,28.99,95,100,4.47,IS,2021-02-10 02:30:51
340,{370},Mayor Pablo Lagerenza,-19.9309,-60.7718,73.9,58,92,9.15,PY,2021-02-10 02:30:51
341,{371},Maasbree,51.3575,6.0486,16.0,72,30,8.75,NL,2021-02-10 02:30:51
342,{372},Puerto Escondido,15.85,-97.0667,80.6,83,20,6.22,MX,2021-02-10 02:30:51
343,{373},Dillon,34.4166,-79.3712,53.01,100,90,2.82,US,2021-02-10 02:30:51
344,{374},Kaset Sombun,16.2805,101.9542,74.08,65,44,6.15,TH,2021-02-10 02:30:51
345,{375},Ancud,-41.8697,-73.8203,60.01,84,0,3.2,CL,2021-02-10 02:30:52
346,{376},Prince Rupert,54.3161,-130.3201,23.0,68,90,6.91,CA,2021-02-10 02:30:52
347,{377},Kongsberg,59.6652,9.6465,7.0,80,17,3.8,NO,2021-02-10 02:30:52
348,{378},Orbetello,42.4408,11.2196,55.4,82,40,13.8,IT,2021-02-10 02:30:52
349,{379},Avilés,43.5547,-5.9248,48.99,87,90,8.05,ES,2021-02-10 02:30:52
350,{380},Ostrovnoy,68.0531,39.5131,6.55,93,90,17.02,RU,2021-02-10 02:30:52
351,{381},Palembang,-2.9167,104.7458,82.4,83,75,5.75,ID,2021-02-10 02:30:53
352,{382},Sumbe,-11.2061,13.8437,74.57,82,100,6.46,AO,2021-02-10 02:30:53
353,{383},Naze,28.3667,129.4833,64.4,55,75,9.22,JP,2021-02-10 02:30:53
354,{384},Dabat,12.9842,37.765,44.98,57,34,4.94,ET,2021-02-10 02:30:53
355,{385},Ubari,26.5921,12.7805,55.17,37,0,7.27,LY,2021-02-10 02:30:53
356,{387},Ukiah,39.1502,-123.2078,60.8,39,90,3.53,US,2021-02-10 02:29:18
357,{388},Zheleznogorsk-Ilimskiy,56.5768,104.1217,7.2,91,100,5.32,RU,2021-02-10 02:30:54
358,{389},Mayo,38.8876,-76.5119,39.2,65,90,8.05,US,2021-02-10 02:30:54
359,{390},Bubaque,11.2833,-15.8333,76.87,66,36,15.08,GW,2021-02-10 02:30:54
360,{391},Tottori-shi,35.5,134.2333,48.2,57,75,4.61,JP,2021-02-10 02:30:54
361,{392},Vanavara,60.34,102.2797,-0.83,89,100,11.39,RU,2021-02-10 02:30:54
362,{393},Saint Paul Harbor,57.79,-152.4072,33.8,86,90,3.44,US,2021-02-10 02:30:54
363,{394},Vila Franca do Campo,37.7167,-25.4333,62.01,94,75,20.71,PT,2021-02-10 02:30:55
364,{395},Margherita di Savoia,41.3742,16.1502,54.0,66,20,5.75,IT,2021-02-10 02:30:55
365,{397},Sawākin,19.1059,37.3321,75.0,77,13,7.81,SD,2021-02-10 02:30:55
366,{398},Tosagua,-0.7833,-80.25,77.0,88,20,3.44,EC,2021-02-10 02:30:55
367,{400},Saint Stephen,50.3333,-4.9,35.01,64,90,20.71,GB,2021-02-10 02:30:56
368,{401},Betanzos,43.2804,-8.2147,50.0,100,75,8.05,ES,2021-02-10 02:30:56
369,{402},São João da Barra,-21.6403,-41.0511,73.69,86,81,6.89,BR,2021-02-10 02:30:56
370,{403},Mount Isa,-20.7333,139.5,93.2,43,40,9.22,AU,2021-02-10 02:30:56
371,{404},Longkou,37.6508,120.3286,40.84,67,0,13.2,CN,2021-02-10 02:30:56
372,{405},Boca do Acre,-8.7522,-67.3978,75.31,97,100,3.31,BR,2021-02-10 02:30:56
373,{406},Pontes e Lacerda,-15.2261,-59.3353,73.54,65,44,0.92,BR,2021-02-10 02:30:56
374,{407},Narsaq,60.9167,-46.05,33.8,27,9,31.07,GL,2021-02-10 02:30:57
375,{408},Maniitsoq,65.4167,-52.9,20.03,83,0,5.93,GL,2021-02-10 02:29:40
376,{409},Kavaratti,10.5669,72.642,81.34,70,0,10.96,IN,2021-02-10 02:30:57
377,{410},Penzance,50.1186,-5.5371,35.01,75,90,35.68,GB,2021-02-10 02:30:57
378,{411},Ende,-8.8432,121.6623,85.23,68,100,7.07,ID,2021-02-10 02:30:57
379,{412},Amapá,1.0,-52.0,71.65,98,100,2.51,BR,2021-02-10 02:30:57
380,{413},Kathmandu,27.7167,85.3167,48.2,87,40,2.3,NP,2021-02-10 02:29:10
381,{414},Brežice,45.9033,15.5911,39.2,81,75,8.05,SI,2021-02-10 02:30:58
382,{415},Porto Walter,-8.2686,-72.7439,74.62,95,100,1.81,BR,2021-02-10 02:30:58
383,{416},Dakar,14.6937,-17.4441,64.4,82,100,11.5,SN,2021-02-10 02:30:58
384,{417},College,64.8569,-147.8028,-14.8,83,20,3.44,US,2021-02-10 02:29:20
385,{418},Soria,41.6667,-2.6667,35.01,100,100,23.15,ES,2021-02-10 02:30:58
386,{419},Athabasca,54.7169,-113.2854,-16.6,63,100,11.5,CA,2021-02-10 02:30:58
387,{420},Puerto Palomas,31.7667,-107.6167,59.0,14,1,9.22,MX,2021-02-10 02:30:58
388,{421},Manaus,-3.1019,-60.025,75.2,100,75,5.75,BR,2021-02-10 02:30:58
389,{422},Khammam,17.25,80.15,71.19,71,1,4.97,IN,2021-02-10 02:30:59
390,{424},Saratoga Springs,43.0831,-73.7846,21.0,66,59,3.56,US,2021-02-10 02:26:13
391,{425},Bakel,14.905,-12.4568,73.71,18,51,8.97,SN,2021-02-10 02:30:59
392,{426},Kuala Lipis,4.1842,102.0468,78.6,81,99,0.98,MY,2021-02-10 02:30:59
393,{427},Mendi,-6.1761,143.6513,65.12,92,100,3.51,PG,2021-02-10 02:31:00
394,{428},De Aar,-30.6497,24.0123,69.46,49,0,8.84,ZA,2021-02-10 02:31:00
395,{429},Makakilo City,21.3469,-158.0858,77.0,41,1,11.5,US,2021-02-10 02:31:00
396,{430},Kalanguy,51.0167,116.5167,19.89,93,100,6.06,RU,2021-02-10 02:31:00
397,{431},Haileybury,47.449,-79.6373,-0.4,55,1,4.61,CA,2021-02-10 02:31:00
398,{432},Yeppoon,-23.1333,150.7333,86.0,45,40,5.75,AU,2021-02-10 02:31:01
399,{433},Doha,25.2867,51.5333,62.6,94,20,8.05,QA,2021-02-10 02:31:01
400,{434},Chernyshevskiy,63.0128,112.4714,-10.98,91,100,9.33,RU,2021-02-10 02:31:01
401,{435},Vyazemskiy,47.5378,134.7525,7.61,92,100,7.16,RU,2021-02-10 02:31:01
402,{436},Mehamn,71.0357,27.8492,20.79,89,100,19.51,NO,2021-02-10 02:31:01
403,{437},Kaeo,-35.1,173.7833,72.0,94,100,3.0,NZ,2021-02-10 02:31:01
404,{438},Ouallam,14.3188,2.0866,70.59,17,0,9.19,NE,2021-02-10 02:31:02
405,{440},Salinópolis,-0.6136,-47.3561,78.91,86,100,7.05,BR,2021-02-10 02:31:02
406,{441},Meulaboh,4.1363,96.1285,84.61,67,96,3.18,ID,2021-02-10 02:31:02
407,{442},Broome,42.2506,-75.833,19.4,86,90,6.91,US,2021-02-10 02:28:51
408,{443},Kuching,1.55,110.3333,84.2,79,40,3.44,MY,2021-02-10 02:31:03
409,{444},Vinh,18.6667,105.6667,66.87,72,40,4.79,VN,2021-02-10 02:31:03
410,{445},Kasempa,-13.4584,25.8338,65.57,97,100,1.83,ZM,2021-02-10 02:31:03
411,{446},Alihe,50.5667,123.7167,17.04,88,0,2.77,CN,2021-02-10 02:31:03
412,{447},Tigil',57.8,158.6667,30.69,92,7,22.15,RU,2021-02-10 02:29:55
413,{448},Lhokseumawe,5.1801,97.1507,81.79,75,10,1.1,ID,2021-02-10 02:27:17
414,{449},Havelock,34.8791,-76.9013,55.99,100,40,4.61,US,2021-02-10 02:28:49
415,{451},Lagoa,39.05,-27.9833,59.02,85,100,14.41,PT,2021-02-10 02:31:04
416,{452},Arrondissement de Bastia,42.6667,9.3333,53.01,87,75,4.61,FR,2021-02-10 02:31:04
417,{453},Kamaishi,39.2667,141.8833,33.8,86,75,10.36,JP,2021-02-10 02:31:04
418,{454},Kashary,49.04,41.0056,32.99,94,97,8.95,RU,2021-02-10 02:31:04
419,{455},Saint George,37.1041,-113.5841,57.99,24,20,2.66,US,2021-02-10 02:30:04
420,{456},Tautira,-17.7333,-149.15,84.2,61,75,14.97,PF,2021-02-10 02:31:04
421,{457},Lüderitz,-26.6481,15.1594,65.82,75,0,2.1,NA,2021-02-10 02:31:04
422,{458},Lorengau,-2.0226,147.2712,79.27,85,100,8.05,PG,2021-02-10 02:31:04
423,{459},Dessalines,19.2833,-72.5,71.49,83,28,2.3,HT,2021-02-10 02:31:05
424,{460},Alta Floresta,-9.8756,-56.0861,75.2,94,0,4.61,BR,2021-02-10 02:31:05
425,{461},Hamilton,39.1834,-84.5333,25.0,74,90,8.05,US,2021-02-10 02:27:42
426,{462},Hofn,64.2539,-15.2082,33.33,94,100,11.07,IS,2021-02-10 02:31:05
427,{463},Choix,26.7092,-108.3219,67.73,33,12,2.08,MX,2021-02-10 02:31:05
428,{464},Valparaíso,-33.0393,-71.6273,60.8,100,90,2.3,CL,2021-02-10 02:31:05
429,{465},Sinop Province,41.7711,34.8709,49.89,59,47,12.01,TR,2021-02-10 02:31:06
430,{466},Poção de Pedras,-4.6667,-44.85,72.84,92,100,1.83,BR,2021-02-10 02:31:06
431,{467},Sonoita,31.85,-112.8333,64.99,26,100,6.73,MX,2021-02-10 02:31:06
432,{468},Laguna de Perlas,12.3429,-83.6712,76.91,85,0,7.9,NI,2021-02-10 02:31:06
433,{469},Balkanabat,39.5108,54.3671,48.69,73,0,5.77,TM,2021-02-10 02:31:06
434,{471},Kārsiyāng,26.8825,88.2773,55.56,50,13,2.93,IN,2021-02-10 02:31:06
435,{472},Longido,-2.7333,36.6833,65.77,84,100,3.2,TZ,2021-02-10 02:31:07
436,{473},Schruns,47.0709,9.9475,33.01,100,100,7.29,AT,2021-02-10 02:31:07
437,{474},Chacabuco,-34.6417,-60.4739,63.0,86,0,1.99,AR,2021-02-10 02:31:07
438,{475},Pangoa,-12.1167,-73.0,70.48,91,100,1.12,PE,2021-02-10 02:31:07
439,{476},Seoni,22.0833,79.5333,67.66,26,37,1.03,IN,2021-02-10 02:31:07
440,{477},Guacarí,3.7638,-76.3329,75.2,69,75,9.22,CO,2021-02-10 02:26:25
441,{478},Talakan,50.3167,130.3667,4.62,85,0,2.8,RU,2021-02-10 02:31:07
442,{479},Nouadhibou,20.931,-17.0347,60.8,82,0,17.27,MR,2021-02-10 02:31:06
443,{480},Karnāl,29.6833,76.9833,59.38,53,0,1.7,IN,2021-02-10 02:31:08
444,{481},Yuanping,38.7153,112.7575,41.2,55,0,1.23,CN,2021-02-10 02:31:08
445,{482},Dongsheng,39.8161,109.9776,31.44,71,0,8.88,CN,2021-02-10 02:27:08
446,{483},Awjilah,29.1081,21.2869,54.66,38,3,5.57,LY,2021-02-10 02:31:08
447,{485},Lingsugūr,16.1667,76.5167,70.38,52,0,8.19,IN,2021-02-10 02:31:08
448,{486},San Patricio,28.017,-97.5169,71.6,88,90,12.66,US,2021-02-10 02:31:09
449,{487},Gouré,13.9835,10.2704,64.74,23,41,9.1,NE,2021-02-10 02:31:09
450,{488},Livenka,50.4491,38.2959,27.54,97,100,8.28,RU,2021-02-10 02:31:09
451,{489},Mwandiga,-4.83,29.6581,70.25,82,100,3.8,TZ,2021-02-10 02:31:09
452,{490},Āstāneh-ye Ashrafīyeh,37.2596,49.9444,53.38,61,11,3.71,IR,2021-02-10 02:31:09
453,{491},Nemuro,43.3236,145.575,26.6,54,40,9.22,JP,2021-02-10 02:31:09
454,{492},Burnie,-41.0667,145.9167,64.99,85,0,5.01,AU,2021-02-10 02:31:09
455,{493},Shache,38.4167,77.2406,45.18,48,1,7.25,CN,2021-02-10 02:31:10
456,{494},Maţāy,28.419,30.7792,61.92,29,100,7.54,EG,2021-02-10 02:31:10
457,{495},Talaya,61.3833,152.75,2.21,91,100,14.38,RU,2021-02-10 02:31:10
458,{496},Evans,33.5337,-82.1307,62.6,77,90,3.44,US,2021-02-10 02:31:10
459,{497},Camacha,33.0833,-16.3333,60.8,88,20,6.91,PT,2021-02-10 02:31:10
460,{498},Necochea,-38.5473,-58.7368,59.0,90,13,1.99,AR,2021-02-10 02:31:10
461,{499},Sosenskiy,54.059,35.9623,3.2,85,90,2.24,RU,2021-02-10 02:31:10
462,{500},Port Hawkesbury,45.6169,-61.3485,21.0,67,20,9.22,CA,2021-02-10 02:31:11
463,{501},Fort-Shevchenko,44.5086,50.263,39.56,75,15,17.36,KZ,2021-02-10 02:31:11
464,{502},Anloga,5.7947,0.8973,82.4,83,40,10.36,GH,2021-02-10 02:31:11
465,{503},Dunedin,-45.8742,170.5036,57.0,73,85,1.01,NZ,2021-02-10 02:31:11
466,{505},Am Timan,11.0297,20.2827,63.36,25,5,4.41,TD,2021-02-10 02:31:11
467,{506},Bumba,2.1833,22.4667,69.15,45,82,1.92,CD,2021-02-10 02:31:11
468,{507},Ambon City,-3.6954,128.1814,91.4,58,20,5.75,ID,2021-02-10 02:31:11
469,{508},Codrington,-38.2667,141.9667,82.81,36,0,8.05,AU,2021-02-10 02:31:12
470,{509},Machico,32.7,-16.7667,59.0,82,20,2.3,PT,2021-02-10 02:31:12
471,{510},Inírida,3.8653,-67.9239,74.66,94,99,1.39,CO,2021-02-10 02:31:12
472,{511},Komárov,49.8065,13.8564,17.01,85,90,2.3,CZ,2021-02-10 02:31:12
473,{513},Husavik,66.0449,-17.3389,21.2,93,90,3.44,IS,2021-02-10 02:31:12
474,{514},Fredericksburg,38.3032,-77.4605,39.99,69,99,3.0,US,2021-02-10 02:29:05
475,{515},Clyde River,70.4692,-68.5914,-2.2,84,40,9.22,CA,2021-02-10 02:27:38
476,{516},Laibin,23.7,109.2667,60.96,71,86,8.1,CN,2021-02-10 02:31:13
477,{517},Russell,32.3502,-85.1999,60.8,94,90,1.45,US,2021-02-10 02:31:13
478,{519},Evensk,61.95,159.2333,15.22,89,100,25.37,RU,2021-02-10 02:31:13
479,{520},Slave Lake,55.2834,-114.769,-18.4,69,90,21.85,CA,2021-02-10 02:31:13
480,{521},Diapaga,12.0708,1.7889,70.56,17,0,5.84,BF,2021-02-10 02:31:13
481,{522},Mporokoso,-9.3727,30.125,60.64,97,93,0.92,ZM,2021-02-10 02:31:13
482,{523},Sūlam,32.6061,35.3341,55.31,52,0,1.95,IL,2021-02-10 02:31:13
483,{524},İskilip,40.7353,34.4739,44.26,67,2,4.9,TR,2021-02-10 02:31:14
484,{525},Saint Lawrence,36.0553,14.204,59.0,88,0,6.91,MT,2021-02-10 02:31:14
485,{526},Korla,41.7597,86.1469,34.34,73,52,5.26,CN,2021-02-10 02:31:14
486,{527},Vallenar,-28.5708,-70.7581,62.2,61,0,2.08,CL,2021-02-10 02:31:14
487,{528},Garden City,42.3256,-83.331,17.01,62,1,4.61,US,2021-02-10 02:31:14
488,{529},Zalţan,32.947,11.8665,60.13,34,0,9.64,LY,2021-02-10 02:31:14
489,{530},Sol'vychegodsk,61.3305,46.9156,-13.94,86,16,4.45,RU,2021-02-10 02:31:14
490,{531},Santa Barbara,34.7333,-120.0343,52.0,81,90,4.61,US,2021-02-10 02:31:14
491,{532},Ahipara,-35.1667,173.1667,66.11,92,100,8.57,NZ,2021-02-10 02:31:15
492,{533},Plettenberg Bay,-34.0527,23.3716,64.49,84,10,2.55,ZA,2021-02-10 02:31:15
493,{534},Nuoro,40.3211,9.3297,60.8,63,40,20.71,IT,2021-02-10 02:27:21
494,{535},Leningradskiy,69.3833,178.4167,-25.83,83,0,11.16,RU,2021-02-10 02:29:45
495,{536},Sin-le-Noble,50.3616,3.1311,21.2,73,0,17.27,FR,2021-02-10 02:31:15
496,{537},Lehigh Acres,26.6254,-81.6248,72.0,83,1,3.44,US,2021-02-10 02:31:12
497,{538},San Jose,37.3394,-121.895,57.99,67,75,8.05,US,2021-02-10 02:26:52
498,{539},Anito,12.4497,125.2886,79.2,75,100,13.24,PH,2021-02-10 02:31:15
499,{540},Mossamedes,-15.1961,12.1522,71.92,79,100,4.52,AO,2021-02-10 02:31:16
500,{541},Salinas,36.6777,-121.6555,53.6,82,20,6.91,US,2021-02-10 02:31:16
501,{542},Vanimo,-2.6741,141.3028,85.48,66,89,6.35,PG,2021-02-10 02:31:16
502,{544},Kharitonovo,61.4009,47.4978,-14.4,86,11,4.41,RU,2021-02-10 02:31:16
503,{545},Mariehamn,60.0973,19.9348,-7.6,84,0,2.3,AX,2021-02-10 02:31:16
504,{546},Karratha,-20.7377,116.8463,94.28,32,4,15.82,AU,2021-02-10 02:31:17
505,{547},Dennis,41.7354,-70.1939,33.8,86,90,9.22,US,2021-02-10 02:31:17
506,{548},Aquiraz,-3.9014,-38.3911,82.4,78,75,9.22,BR,2021-02-10 02:31:17
507,{549},Sibolga,1.7427,98.7792,85.86,63,73,2.73,ID,2021-02-10 02:31:17
508,{550},Aswān,24.0934,32.907,63.21,47,54,9.15,EG,2021-02-10 02:31:17
509,{551},Camopi,3.1655,-52.3158,70.66,97,58,2.51,GF,2021-02-10 02:31:17
510,{552},Lufilufi,-13.8745,-171.5986,86.0,79,75,4.61,WS,2021-02-10 02:31:17
511,{553},Discovery Bay,37.9085,-121.6002,61.0,62,90,12.66,US,2021-02-10 02:31:18
512,{554},Kushiro,42.975,144.3747,30.2,43,20,12.66,JP,2021-02-10 02:31:18
513,{555},Havre-St-Pierre,50.2334,-63.5986,5.0,66,1,11.5,CA,2021-02-10 02:31:18
514,{557},Kutum,14.2,24.6667,56.08,39,46,11.34,SD,2021-02-10 02:31:18
515,{558},Inuvik,68.3499,-133.7218,-32.8,74,0,2.3,CA,2021-02-10 02:31:18
516,{560},Caucayá,-0.1934,-74.7819,78.1,74,97,3.0,CO,2021-02-10 02:31:19
517,{561},Kirkuk,35.4681,44.3922,53.56,53,80,3.49,IQ,2021-02-10 02:31:19
518,{562},Westport,41.1415,-73.3579,27.0,80,1,3.44,US,2021-02-10 02:28:10
519,{563},Beneditinos,-5.45,-42.3667,77.0,88,0,2.3,BR,2021-02-10 02:31:19
520,{564},Santa Catarina de Tepehuanes,25.35,-105.7333,54.82,36,0,8.1,MX,2021-02-10 02:29:42
521,{565},Ishigaki,24.3448,124.1572,71.6,68,75,19.57,JP,2021-02-10 02:31:19
522,{566},Avera,33.194,-82.5271,59.0,85,90,3.44,US,2021-02-10 02:31:16
523,{567},Dingle,10.9995,122.6711,83.46,76,24,2.98,PH,2021-02-10 02:31:19
524,{568},Aitape,-3.1374,142.3475,85.55,69,95,2.75,PG,2021-02-10 02:31:19
525,{569},Strezhevoy,60.7333,77.5889,-16.6,76,90,6.71,RU,2021-02-10 02:31:19
526,{570},Srandakan,-7.9386,110.2506,83.41,71,65,5.3,ID,2021-02-10 02:31:20
527,{571},Sechura,-5.5569,-80.8222,76.51,73,100,10.4,PE,2021-02-10 02:31:20
528,{572},Henties Bay,-22.116,14.2845,66.0,91,39,9.44,NA,2021-02-10 02:31:20
529,{573},Malatya Province,38.5,38.0,33.8,93,0,8.05,TR,2021-02-10 02:31:20
530,{574},Micomeseng,2.1462,10.6164,68.83,99,69,2.17,GQ,2021-02-10 02:31:20
531,{575},Rafai,4.95,23.9167,59.54,33,55,1.34,CF,2021-02-10 02:31:20
532,{576},Ilebo,-4.3167,20.5833,72.1,87,96,1.57,CD,2021-02-10 02:31:20
533,{577},Soe,-9.8607,124.284,77.43,79,100,5.46,ID,2021-02-10 02:31:21
534,{579},Monte San Pietro,44.4378,11.1357,50.0,71,0,8.05,IT,2021-02-10 02:31:21
535,{580},Tornio,65.8481,24.1466,-20.2,76,75,5.75,FI,2021-02-10 02:31:21
536,{581},Eresós,39.1667,25.9333,60.48,70,19,18.75,GR,2021-02-10 02:31:21
537,{582},Basco,20.4487,121.9702,73.29,83,100,25.7,PH,2021-02-10 02:31:21
538,{583},Vung Tau,10.346,107.0843,80.28,72,71,7.47,VN,2021-02-10 02:31:21
539,{584},Bluefield,37.2698,-81.2223,39.99,100,90,3.44,US,2021-02-10 02:31:21
540,{586},Tabas,33.5959,56.9244,48.2,43,34,4.61,IR,2021-02-10 02:31:22
541,{587},Makkah al Mukarramah,21.4267,39.8261,70.92,47,0,2.46,SA,2021-02-10 02:31:22
542,{588},Hervey Bay,-25.2986,152.8535,81.0,56,19,8.99,AU,2021-02-10 02:28:34
543,{589},Baishishan,43.5833,127.5667,24.3,93,32,5.01,CN,2021-02-10 02:31:22
544,{590},Vila do Maio,15.1333,-23.2167,68.0,83,0,12.66,CV,2021-02-10 02:31:22
545,{591},Mogadishu,2.0371,45.3438,75.02,78,70,19.39,SO,2021-02-10 02:31:22
546,{592},Dubti,11.7361,41.0853,72.16,57,68,6.71,ET,2021-02-10 02:31:23
547,{593},Jacareacanga,-6.2222,-57.7528,73.65,97,100,2.53,BR,2021-02-10 02:31:23
548,{594},Miranda,3.2499,-76.2281,75.2,69,75,9.22,CO,2021-02-10 02:31:23
549,{595},Sisimiut,66.9395,-53.6735,17.74,80,0,5.23,GL,2021-02-10 02:31:12
550,{596},San Andrés,12.5847,-81.7006,80.6,78,75,11.5,CO,2021-02-10 02:30:07
551,{597},Kloulklubed,7.0419,134.2556,84.2,74,90,10.36,PW,2021-02-10 02:31:23
552,{598},Lamar,33.6668,-95.5836,28.4,93,90,9.22,US,2021-02-10 02:31:23
553,{599},Bundaberg,-24.85,152.35,82.4,51,90,11.5,AU,2021-02-10 02:31:24
554,{600},Grand Forks,47.9417,-97.4337,-9.4,77,1,6.91,US,2021-02-10 02:31:24
555,{601},Cootamundra,-34.65,148.0333,81.0,46,0,4.0,AU,2021-02-10 02:31:24
556,{602},Manavālakurichi,8.1333,77.3,78.8,50,20,10.83,IN,2021-02-10 02:31:24
557,{603},Fortuna,40.5982,-124.1573,48.99,100,90,9.22,US,2021-02-10 02:31:24
558,{604},Biak,-0.9131,122.8766,84.07,68,87,1.25,ID,2021-02-10 02:31:24
559,{605},Zabul Province,32.25,67.25,37.67,74,0,2.15,AF,2021-02-10 02:31:24
560,{606},Ambilobe,-13.2,49.05,74.52,91,100,1.7,MG,2021-02-10 02:31:24
561,{607},Vicuña,-30.0319,-70.7081,60.8,88,40,6.91,CL,2021-02-10 02:28:18
562,{608},Luanda,-8.8368,13.2343,78.8,89,75,3.44,AO,2021-02-10 02:27:51
563,{609},Seymchan,62.8833,152.4333,2.05,89,100,10.98,RU,2021-02-10 02:31:25
564,{610},Gamba,-2.65,10.0,76.5,86,100,2.15,GA,2021-02-10 02:31:25
565,{611},Kudat,6.8837,116.8477,82.4,83,20,3.44,MY,2021-02-10 02:31:25
566,{612},Alofi,-19.0595,-169.9187,86.0,74,75,11.5,NU,2021-02-10 02:28:32
567,{613},Tibiri,13.5627,7.0485,66.49,21,16,11.01,NE,2021-02-10 02:31:25
568,{614},Avon Park,27.5959,-81.5062,72.0,90,56,3.94,US,2021-02-10 02:31:25
569,{615},Rundu,-17.9333,19.7667,68.27,92,100,8.93,NA,2021-02-10 02:27:06
570,{616},Qasigiannguit,68.8193,-51.1922,17.6,45,0,12.66,GL,2021-02-10 02:31:26
571,{617},Morón,-34.6534,-58.6198,69.01,84,19,5.01,AR,2021-02-10 02:31:26
572,{618},Omboué,-1.5746,9.2618,75.52,91,100,3.24,GA,2021-02-10 02:31:26
573,{619},Oskarshamn,57.2645,16.4484,25.0,76,100,8.99,SE,2021-02-10 02:31:26
574,{620},Rahā,26.2333,92.5167,66.97,52,0,4.52,IN,2021-02-10 02:31:26
575,{621},Parvatsar,26.8833,74.7667,65.01,27,63,5.84,IN,2021-02-10 02:31:26
576,{622},Sinjai,-5.1241,120.253,87.71,55,100,2.04,ID,2021-02-10 02:28:34
577,{623},Mandalī,33.7499,45.5541,59.65,39,9,8.34,IQ,2021-02-10 02:31:27
