,City ID,City,Lat,Lng,Max Temp,Humidity,Cloudiness,Wind Speed,Country,Date
0,{0},Arraial do Cabo,-22.9661,-42.0278,77.0,83,75,5.75,BR,2021-02-07 18:26:33
1,{1},Maniwaki,46.3834,-75.966,21.2,79,100,6.91,CA,2021-02-07 18:24:47
2,{2},Ojinaga,29.5667,-104.4167,66.99,15,1,3.44,MX,2021-02-07 18:26:33
3,{3},Mayskiy,47.6931,40.1025,15.8,67,0,4.47,RU,2021-02-07 18:26:34
4,{4},Albany,42.6001,-73.9662,30.0,74,100,4.45,US,2021-02-07 18:21:35
5,{5},Atuona,-9.8,-139.0333,79.25,74,37,21.03,PF,2021-02-07 18:25:30
6,{6},Cotonou,6.3654,2.4183,86.0,79,20,13.8,BJ,2021-02-07 18:26:34
7,{7},Busselton,-33.65,115.3333,64.0,99,99,9.86,AU,2021-02-07 18:26:34
8,{8},Pevek,69.7008,170.3133,-6.29,86,0,1.86,RU,2021-02-07 18:26:34
9,{9},Saint Paul Harbor,57.79,-152.4072,26.6,68,1,4.61,US,2021-02-07 18:26:34
10,{10},New Norfolk,-42.7826,147.0587,53.01,64,10,1.01,AU,2021-02-07 18:26:34
11,{11},Bambous Virieux,-20.3428,57.7575,80.6,74,75,6.91,MU,2021-02-07 18:23:56
12,{12},Barrow,71.2906,-156.7887,-22.0,76,40,10.36,US,2021-02-07 18:25:44
13,{13},Kindu,-2.95,25.95,76.39,73,88,1.23,CD,2021-02-07 18:26:35
14,{14},Barra do Garças,-15.89,-52.2567,86.0,66,40,4.61,BR,2021-02-07 18:26:35
15,{15},Olinda,-8.0089,-34.8553,84.2,61,75,10.36,BR,2021-02-07 18:26:35
16,{16},Iqaluit,63.7506,-68.5145,26.6,68,75,19.57,CA,2021-02-07 18:25:15
17,{17},Nova Kakhovka,46.7545,33.3486,23.0,80,0,11.18,UA,2021-02-07 18:26:35
18,{18},Ushtobe,45.2514,77.9838,32.9,95,100,8.63,KZ,2021-02-07 18:26:35
19,{20},Rikitea,-23.1203,-134.9692,77.47,71,86,10.94,PF,2021-02-07 18:26:35
20,{21},Taungdwingyi,20.0167,95.55,66.16,75,36,2.46,MM,2021-02-07 18:26:36
21,{22},Tuktoyaktuk,69.4541,-133.0374,-25.6,75,75,19.57,CA,2021-02-07 18:26:36
22,{24},Qaanaaq,77.484,-69.3632,11.64,87,99,4.79,GL,2021-02-07 18:26:36
23,{25},Haines Junction,60.7522,-137.5108,-27.4,68,45,1.14,CA,2021-02-07 18:26:36
24,{26},Chui,-33.6971,-53.4616,76.33,60,1,8.97,UY,2021-02-07 18:25:40
25,{27},Mahébourg,-20.4081,57.7,80.6,74,75,6.91,MU,2021-02-07 18:26:37
26,{28},Severo-Kuril'sk,50.6789,156.125,16.86,87,82,13.11,RU,2021-02-07 18:26:37
27,{29},Byron Bay,-28.65,153.6167,75.2,78,75,10.36,AU,2021-02-07 18:25:08
28,{30},Bluff,-46.6,168.3333,54.05,85,100,5.1,NZ,2021-02-07 18:26:37
29,{31},Aripuanã,-9.1667,-60.6333,76.41,89,100,2.86,BR,2021-02-07 18:26:37
30,{32},Matara,5.9485,80.5353,76.17,85,21,3.83,LK,2021-02-07 18:26:37
31,{33},Ushuaia,-54.8,-68.3,59.0,47,40,12.66,AR,2021-02-07 18:23:11
32,{34},Acapulco de Juárez,16.8634,-99.8901,86.0,54,40,4.97,MX,2021-02-07 18:26:37
33,{35},Coyhaique,-45.5752,-72.0662,73.4,35,0,6.91,CL,2021-02-07 18:26:38
34,{36},Calbuco,-41.768,-73.1273,78.8,47,0,9.22,CL,2021-02-07 18:26:38
35,{37},San Andrés,12.5847,-81.7006,86.0,62,20,8.05,CO,2021-02-07 18:23:24
36,{38},Manhattan,40.7834,-73.9662,33.8,86,90,9.22,US,2021-02-07 18:23:19
37,{39},Faya,18.3851,42.4509,57.2,62,0,6.33,SA,2021-02-07 18:26:38
38,{40},Hithadhoo,-0.6,73.0833,81.9,71,44,8.93,MV,2021-02-07 18:26:38
39,{41},Carnarvon,-24.8667,113.6333,78.8,100,40,13.8,AU,2021-02-07 18:25:53
40,{42},Ponta do Sol,32.6667,-17.1,61.0,67,75,3.0,PT,2021-02-07 18:26:38
41,{43},Stykkisholmur,65.0757,-22.7297,27.45,90,6,8.86,IS,2021-02-07 18:26:38
42,{44},Port Lincoln,-34.7333,135.8667,58.98,81,15,16.13,AU,2021-02-07 18:26:39
43,{45},Pascagoula,30.3658,-88.5561,55.4,58,1,12.66,US,2021-02-07 18:22:57
44,{46},Ancud,-41.8697,-73.8203,80.6,34,0,6.91,CL,2021-02-07 18:26:39
45,{47},Bethel,41.3712,-73.414,28.0,93,90,8.05,US,2021-02-07 18:26:39
46,{48},Hobart,-42.8794,147.3294,53.6,58,1,5.75,AU,2021-02-07 18:21:57
47,{49},Port Alfred,-33.5906,26.891,66.99,95,70,1.01,ZA,2021-02-07 18:25:22
48,{50},Mandalgovi,45.7625,106.2708,12.56,81,0,10.13,MN,2021-02-07 18:26:39
49,{51},Dhībān,35.0365,40.5167,59.38,67,0,6.02,SY,2021-02-07 18:26:39
50,{52},Soavinandriana,-19.1667,46.7333,62.13,98,100,4.52,MG,2021-02-07 18:26:39
51,{53},Ostrovnoy,68.0531,39.5131,6.37,88,100,1.59,RU,2021-02-07 18:26:39
52,{54},Bredasdorp,-34.5322,20.0403,68.0,60,48,10.36,ZA,2021-02-07 18:26:40
53,{55},Saint George,37.1041,-113.5841,51.01,36,1,3.44,US,2021-02-07 18:26:40
54,{56},Egvekinot,66.3167,-179.1667,-9.0,79,0,15.21,RU,2021-02-07 18:26:40
55,{57},Tiksi,71.6872,128.8694,-27.6,84,56,3.71,RU,2021-02-07 18:25:48
56,{58},Nikel,69.4128,30.222,21.2,86,75,17.27,RU,2021-02-07 18:26:40
57,{61},Puerto Escondido,15.85,-97.0667,84.2,74,40,9.22,MX,2021-02-07 18:26:40
58,{62},Cumpas,29.9833,-109.7833,67.39,25,0,4.56,MX,2021-02-07 18:26:40
59,{63},High Level,58.5169,-117.136,-29.2,68,75,3.44,CA,2021-02-07 18:26:41
60,{64},Port Augusta,-32.5,137.7667,62.6,77,0,10.36,AU,2021-02-07 18:26:41
61,{65},Mar del Plata,-38.0023,-57.5575,62.01,88,90,25.32,AR,2021-02-07 18:22:55
62,{66},Yellowknife,62.456,-114.3525,-40.0,66,1,5.75,CA,2021-02-07 18:26:41
63,{67},Bagé,-31.3314,-54.1069,84.2,51,0,8.05,BR,2021-02-07 18:26:41
64,{68},Chokurdakh,70.6333,147.9167,-23.75,85,71,7.34,RU,2021-02-07 18:24:09
65,{69},Butaritari,3.0707,172.7902,80.73,80,70,18.66,KI,2021-02-07 18:26:41
66,{70},Suntar,62.1444,117.6319,1.36,92,100,10.49,RU,2021-02-07 18:26:41
67,{72},İstisu,40.9457,48.0738,51.8,54,90,17.27,AZ,2021-02-07 18:26:42
68,{74},Longyearbyen,78.2186,15.6401,15.8,73,75,19.57,SJ,2021-02-07 18:26:42
69,{75},Eenhana,-17.4667,16.3333,95.0,26,90,8.05,NA,2021-02-07 18:26:42
70,{76},Kavaratti,10.5669,72.642,81.19,67,0,6.78,IN,2021-02-07 18:26:42
71,{77},Cabo San Lucas,22.8909,-109.9124,78.01,64,40,8.05,MX,2021-02-07 18:24:05
72,{78},Punta Arenas,-53.15,-70.9167,69.8,23,0,12.66,CL,2021-02-07 18:22:02
73,{79},Kahului,20.8947,-156.47,70.0,77,20,5.75,US,2021-02-07 18:23:33
74,{80},Santa Cruz de la Sierra,-17.8,-63.1667,91.4,49,75,11.5,BO,2021-02-07 18:23:17
75,{81},Catuday,16.2923,119.8062,77.09,78,25,9.19,PH,2021-02-07 18:26:43
76,{82},Baykit,61.67,96.37,25.65,96,100,5.19,RU,2021-02-07 18:26:43
77,{83},Port Hardy,50.6996,-127.4199,39.2,93,75,8.05,CA,2021-02-07 18:26:13
78,{84},Neiafu,-18.65,-173.9833,77.0,94,90,13.8,TO,2021-02-07 18:26:43
79,{85},Vaini,-21.2,-175.2,78.8,89,75,12.66,TO,2021-02-07 18:26:43
80,{86},Necochea,-38.5473,-58.7368,57.99,96,88,10.0,AR,2021-02-07 18:26:43
81,{87},Florida,28.7505,-82.5001,75.0,68,1,9.22,US,2021-02-07 18:26:44
82,{88},Guerrero Negro,27.9769,-114.0611,71.56,23,0,5.1,MX,2021-02-07 18:26:44
83,{89},Malangali,-8.5667,34.85,65.08,87,95,2.17,TZ,2021-02-07 18:26:44
84,{90},Hilo,19.7297,-155.09,71.01,52,1,8.05,US,2021-02-07 18:25:24
85,{91},Ahipara,-35.1667,173.1667,59.5,89,58,7.25,NZ,2021-02-07 18:26:44
86,{92},Okha,53.5739,142.9478,8.82,94,100,25.77,RU,2021-02-07 18:26:44
87,{93},Kiryat Gat,31.61,34.7642,60.01,100,0,4.88,IL,2021-02-07 18:23:02
88,{94},Elizabethtown,37.694,-85.8591,30.99,51,1,3.44,US,2021-02-07 18:26:44
89,{95},Arcata,40.8665,-124.0828,48.99,93,20,3.44,US,2021-02-07 18:26:44
90,{96},Takoradze,4.8845,-1.7554,81.84,83,98,12.55,GH,2021-02-07 18:26:45
91,{97},Luau,-10.7073,22.2247,68.99,96,99,4.34,AO,2021-02-07 18:26:34
92,{98},Batemans Bay,-35.7167,150.1833,62.01,76,93,1.99,AU,2021-02-07 18:26:45
93,{99},Havøysund,70.9963,24.6622,28.4,69,75,26.46,NO,2021-02-07 18:26:45
94,{100},Merauke,-8.4667,140.3333,79.57,85,94,11.99,ID,2021-02-07 18:26:45
95,{102},Narsaq,60.9167,-46.05,37.4,30,90,47.18,GL,2021-02-07 18:26:45
96,{103},Palmer,42.1584,-72.3287,30.0,86,90,5.75,US,2021-02-07 18:26:45
97,{104},Cape Town,-33.9258,18.4232,69.01,60,0,25.32,ZA,2021-02-07 18:25:28
98,{106},Mataura,-46.1927,168.8643,50.13,89,98,1.7,NZ,2021-02-07 18:24:02
99,{107},Kapaa,22.0752,-159.319,60.8,77,1,4.61,US,2021-02-07 18:24:55
100,{108},Tasiilaq,65.6145,-37.6368,19.4,58,0,2.3,GL,2021-02-07 18:26:46
101,{109},Half Moon Bay,37.4636,-122.4286,57.99,76,1,5.75,US,2021-02-07 18:26:46
102,{110},Kremenki,54.885,37.1261,8.6,85,75,11.18,RU,2021-02-07 18:22:10
103,{111},Abu Samrah,35.3029,37.1841,54.3,78,0,8.16,SY,2021-02-07 18:26:46
104,{112},Beidao,34.5686,105.8933,38.77,60,1,4.09,CN,2021-02-07 18:26:46
105,{113},Saint-Philippe,-21.3585,55.7679,78.8,83,0,5.75,RE,2021-02-07 18:26:46
106,{114},Winslow,35.0242,-110.6974,54.0,23,1,3.44,US,2021-02-07 18:26:47
107,{115},Puerto Madero,14.7208,-92.4215,89.6,45,1,5.75,MX,2021-02-07 18:26:47
108,{117},Verkhnyaya Toyma,62.2349,44.9985,-17.55,86,100,6.96,RU,2021-02-07 18:26:47
109,{118},Pio XII,-3.8325,-45.1525,89.28,61,75,2.46,BR,2021-02-07 18:26:47
110,{119},Griffith,41.5284,-87.4237,6.01,51,1,3.44,US,2021-02-07 18:26:47
111,{120},Constitución,-35.3333,-72.4167,67.26,66,67,8.39,CL,2021-02-07 18:22:54
112,{121},Bara,10.3744,10.7288,82.24,16,68,8.19,NG,2021-02-07 18:26:47
113,{122},Forsytheganj,52.6333,29.7333,5.07,92,71,3.24,BY,2021-02-07 18:26:47
114,{123},Guantánamo,20.1444,-75.2092,84.2,74,40,9.22,CU,2021-02-07 18:26:48
115,{124},Dargaville,-35.9333,173.8833,57.54,88,26,3.49,NZ,2021-02-07 18:26:48
116,{125},Husavik,66.0449,-17.3389,32.0,80,90,3.44,IS,2021-02-07 18:26:48
117,{126},Airai,-8.9266,125.4092,60.64,100,100,2.86,TL,2021-02-07 18:26:48
118,{127},Norman Wells,65.282,-126.8329,-29.2,75,90,2.3,CA,2021-02-07 18:26:48
119,{128},Vardø,70.3705,31.1107,23.0,86,75,32.21,NO,2021-02-07 18:26:48
120,{129},São Gabriel da Cachoeira,-0.1303,-67.0892,87.8,70,40,4.61,BR,2021-02-07 18:26:48
121,{130},Sitka,57.0531,-135.33,30.2,47,1,5.75,US,2021-02-07 18:26:49
122,{131},Makakilo City,21.3469,-158.0858,64.4,72,1,3.44,US,2021-02-07 18:26:49
123,{132},Saskylakh,71.9167,114.0833,-38.09,78,27,11.72,RU,2021-02-07 18:23:02
124,{133},San Fernando,15.0286,120.6898,75.2,78,40,2.3,PH,2021-02-07 18:26:49
125,{134},Te Anau,-45.4167,167.7167,54.75,80,99,2.73,NZ,2021-02-07 18:26:49
126,{135},Lüderitz,-26.6481,15.1594,74.26,54,0,30.76,NA,2021-02-07 18:23:15
127,{136},Verkhnevilyuysk,63.4453,120.3167,-13.04,87,58,9.33,RU,2021-02-07 18:26:49
128,{137},Mabaruma,8.2,-59.7833,77.38,88,99,5.26,GY,2021-02-07 18:26:49
129,{138},Cayenne,4.9333,-52.3333,82.4,78,75,14.97,GF,2021-02-07 18:26:49
130,{139},San Luis,-33.295,-66.3356,90.21,21,0,7.67,AR,2021-02-07 18:26:50
131,{140},Kaitangata,-46.2817,169.8464,61.0,94,61,2.44,NZ,2021-02-07 18:26:50
132,{141},Aljezur,37.3191,-8.8033,54.0,100,93,1.99,PT,2021-02-07 18:26:50
133,{142},Clyde River,70.4692,-68.5914,-4.0,84,90,14.97,CA,2021-02-07 18:26:50
134,{143},Umba,66.6871,34.3429,5.63,93,82,6.49,RU,2021-02-07 18:26:50
135,{144},Palau,7.503,134.621,77.0,94,90,5.75,PW,2021-02-07 18:26:50
136,{147},Margate,51.3813,1.3862,30.99,85,100,5.99,GB,2021-02-07 18:25:28
137,{149},Meulaboh,4.1363,96.1285,77.88,84,37,4.18,ID,2021-02-07 18:26:51
138,{150},Los Llanos de Aridane,28.6585,-17.9182,64.4,68,40,8.05,ES,2021-02-07 18:26:51
139,{151},Terrace Bay,48.7834,-87.1,-2.2,71,40,5.75,CA,2021-02-07 18:26:51
140,{152},George Town,5.4112,100.3354,84.0,83,20,3.6,MY,2021-02-07 18:26:38
141,{153},Puerto Ayora,-0.7393,-90.3518,84.2,70,0,17.27,EC,2021-02-07 18:26:51
142,{154},La Unión,-5.4,-80.75,90.09,39,4,9.64,PE,2021-02-07 18:26:51
143,{156},Avarua,-21.2078,-159.775,80.6,83,20,5.75,CK,2021-02-07 18:25:19
144,{157},Boddam,57.4667,-1.7833,32.0,93,75,13.8,GB,2021-02-07 18:26:52
145,{158},San Patricio,28.017,-97.5169,70.0,49,1,12.66,US,2021-02-07 18:26:52
146,{160},Thompson,55.7435,-97.8558,-31.0,68,90,18.41,CA,2021-02-07 18:25:36
147,{161},Vestmannaeyjar,63.4427,-20.2734,35.6,87,40,26.46,IS,2021-02-07 18:26:52
148,{162},Laguna,38.421,-121.4238,57.0,87,1,4.0,US,2021-02-07 18:26:52
149,{163},Hermanus,-34.4187,19.2345,68.0,74,38,6.35,ZA,2021-02-07 18:26:52
150,{164},Shimoda,34.6667,138.95,41.0,52,2,20.07,JP,2021-02-07 18:26:19
151,{165},Siilinjärvi,63.0833,27.6667,17.6,86,75,9.22,FI,2021-02-07 18:26:53
152,{166},Beloha,-25.1667,45.05,76.51,84,21,8.88,MG,2021-02-07 18:26:53
153,{167},Isangel,-19.55,169.2667,77.41,79,40,4.92,VU,2021-02-07 18:26:53
154,{168},Castro,-24.7911,-50.0119,76.26,42,0,3.8,BR,2021-02-07 18:25:17
155,{169},Kruisfontein,-34.0033,24.7314,64.99,94,100,3.0,ZA,2021-02-07 18:26:51
156,{170},East London,-33.0153,27.9116,71.6,88,40,3.44,ZA,2021-02-07 18:25:36
157,{171},Pozo Colorado,-23.4923,-58.7972,94.51,23,0,3.62,PY,2021-02-07 18:26:53
158,{172},Great Falls,47.5002,-111.3008,-7.01,70,90,3.74,US,2021-02-07 18:24:06
159,{174},Mount Gambier,-37.8333,140.7667,55.4,71,90,8.05,AU,2021-02-07 18:23:17
160,{175},Paragominas,-2.9667,-47.4833,85.35,71,64,4.68,BR,2021-02-07 18:26:54
161,{176},Tete,-16.1564,33.5867,89.6,55,20,4.61,MZ,2021-02-07 18:26:54
162,{177},Gitarama,-2.0744,29.7567,69.8,83,75,2.3,RW,2021-02-07 18:26:54
163,{179},Iquique,-20.2208,-70.1431,78.8,44,0,19.57,CL,2021-02-07 18:22:49
164,{180},Morong,14.5115,121.2393,79.0,78,20,2.3,PH,2021-02-07 18:26:54
165,{181},Jamestown,42.097,-79.2353,19.99,73,90,17.27,US,2021-02-07 18:26:37
166,{183},Kununurra,-15.7667,128.7333,78.8,77,75,9.4,AU,2021-02-07 18:26:54
167,{184},Saldanha,-33.0117,17.9442,66.2,63,0,20.71,ZA,2021-02-07 18:26:32
168,{185},Sobolevo,54.4299,31.8996,1.04,93,42,8.63,RU,2021-02-07 18:26:55
169,{186},Gari,59.4307,62.3497,-9.27,91,100,4.72,RU,2021-02-07 18:26:55
170,{187},Algiers,36.7525,3.042,55.4,76,40,8.05,DZ,2021-02-07 18:26:55
171,{188},Raudeberg,61.9875,5.1352,25.0,60,0,5.14,NO,2021-02-07 18:26:55
172,{189},Buraidah,26.326,43.975,55.4,94,40,5.75,SA,2021-02-07 18:22:33
173,{190},Viedma,-40.8135,-62.9967,66.0,54,76,17.36,AR,2021-02-07 18:26:55
174,{191},Nikolskoye,59.7035,30.7861,15.8,92,90,8.95,RU,2021-02-07 18:26:55
175,{192},Mitsamiouli,-11.3847,43.2844,83.91,71,71,6.91,KM,2021-02-07 18:26:55
176,{193},Quatre Cocos,-20.2078,57.7625,80.6,74,75,6.91,MU,2021-02-07 18:26:55
177,{194},Kamyshnya,50.1859,33.684,4.48,93,100,3.2,UA,2021-02-07 18:26:56
178,{195},Manggar,-2.8833,108.2667,79.77,82,87,12.46,ID,2021-02-07 18:26:56
179,{196},Kloulklubed,7.0419,134.2556,77.0,94,90,5.75,PW,2021-02-07 18:26:56
180,{197},Bilma,18.6853,12.9164,68.68,21,75,5.28,NE,2021-02-07 18:26:56
181,{198},Natal,-5.795,-35.2094,87.8,62,20,16.11,BR,2021-02-07 18:26:56
182,{199},Nhulunbuy,-12.2333,136.7667,80.6,83,40,9.22,AU,2021-02-07 18:26:56
183,{201},Cabano,10.5869,122.7002,79.39,83,100,19.39,PH,2021-02-07 18:26:56
184,{203},Aksarka,66.5606,67.7975,-16.53,88,100,29.21,RU,2021-02-07 18:26:57
185,{204},Alamogordo,32.8995,-105.9603,62.01,11,1,5.75,US,2021-02-07 18:26:57
186,{206},Itamarandiba,-17.8572,-42.8589,73.31,84,100,6.49,BR,2021-02-07 18:26:57
187,{207},Laas,46.6166,10.7002,39.99,100,90,4.61,IT,2021-02-07 18:26:57
188,{208},Norsup,-16.0667,167.3833,78.66,67,3,5.37,VU,2021-02-07 18:26:57
189,{209},Bataiporã,-22.2953,-53.2711,81.7,61,20,1.03,BR,2021-02-07 18:26:57
190,{211},Esperance,-33.8667,121.9,62.6,88,75,11.5,AU,2021-02-07 18:26:57
191,{212},Tilichiki,60.4667,166.1,11.14,97,100,16.22,RU,2021-02-07 18:26:58
192,{213},Marystown,47.1666,-55.1483,31.32,88,68,30.8,CA,2021-02-07 18:26:58
193,{214},Oranjemund,-28.55,16.4333,65.07,77,5,23.51,NA,2021-02-07 18:25:56
194,{215},Kyakhta,50.3508,106.4494,-2.09,90,39,3.11,RU,2021-02-07 18:26:58
195,{216},Machico,32.7,-16.7667,62.6,77,20,2.3,PT,2021-02-07 18:26:58
196,{217},Cidreira,-30.1811,-50.2056,76.66,63,33,11.16,BR,2021-02-07 18:26:58
197,{218},Ulladulla,-35.35,150.4667,66.0,77,90,9.22,AU,2021-02-07 18:26:58
198,{219},Valentín Gómez Farías,28.2167,-106.5833,61.77,27,67,4.03,MX,2021-02-07 18:26:58
199,{220},Vao,-22.6667,167.4833,77.13,85,25,2.71,NC,2021-02-07 18:26:58
200,{221},Port Elizabeth,-33.918,25.5701,68.0,94,75,10.36,ZA,2021-02-07 18:25:21
201,{222},Bengkulu,-3.8004,102.2655,76.46,85,100,6.29,ID,2021-02-07 18:26:59
202,{223},Dolores,-36.3132,-57.6792,77.16,62,32,14.65,AR,2021-02-07 18:26:59
203,{224},Pangnirtung,66.1451,-65.7125,33.8,37,20,11.5,CA,2021-02-07 18:25:50
204,{225},Torbay,47.6666,-52.7314,34.0,55,20,27.63,CA,2021-02-07 18:26:59
205,{226},Touros,-5.1989,-35.4608,87.8,58,40,17.27,BR,2021-02-07 18:26:59
206,{228},Doha,25.2867,51.5333,69.8,78,20,9.22,QA,2021-02-07 18:22:23
207,{229},Fortuna,40.5982,-124.1573,48.99,81,75,6.91,US,2021-02-07 18:26:59
208,{230},Sørland,67.667,12.6934,35.6,80,40,19.57,NO,2021-02-07 18:26:18
209,{231},Coahuayana Viejo,18.7333,-103.6833,75.2,69,1,6.91,MX,2021-02-07 18:27:00
210,{232},Yelizovo,53.1873,158.3805,21.2,86,100,4.47,RU,2021-02-07 18:27:00
211,{233},Dikson,73.5069,80.5464,-30.84,85,89,11.7,RU,2021-02-07 18:27:00
212,{234},Adrar,20.5022,-10.0711,68.45,24,0,11.83,MR,2021-02-07 18:27:00
213,{235},Provideniya,64.3833,-173.3,-3.78,78,40,16.82,RU,2021-02-07 18:26:39
214,{236},Malanje,-9.5402,16.341,67.91,94,98,5.79,AO,2021-02-07 18:27:00
215,{237},Halifax,44.6453,-63.5724,30.2,47,100,2.3,CA,2021-02-07 18:24:51
216,{238},Nishihara,26.1842,127.7558,62.6,67,1,3.44,JP,2021-02-07 18:26:31
217,{239},Lovington,32.944,-103.3485,66.99,12,0,4.0,US,2021-02-07 18:27:00
218,{240},Spearfish,44.4908,-103.8594,6.01,78,90,8.05,US,2021-02-07 18:27:01
219,{241},Pisco,-13.7,-76.2167,78.01,83,40,9.22,PE,2021-02-07 18:24:57
220,{243},Baraguá,21.6967,-78.6328,88.02,49,25,8.16,CU,2021-02-07 18:27:01
221,{244},São Filipe,14.8961,-24.4956,70.9,71,79,10.58,CV,2021-02-07 18:27:01
222,{245},Hagenow,53.4333,11.1833,24.01,62,100,20.0,DE,2021-02-07 18:27:01
223,{246},Key Largo,25.0865,-80.4473,84.0,79,0,16.4,US,2021-02-07 18:23:47
224,{247},Pedernales,18.0384,-71.744,87.13,45,39,11.92,DO,2021-02-07 18:27:01
225,{248},Dicabisagan,17.0818,122.4157,74.5,86,20,3.0,PH,2021-02-07 18:27:02
226,{249},Carroll,39.5501,-77.0164,36.0,100,100,7.31,US,2021-02-07 18:27:02
227,{250},Muhafazat Lahij,13.1667,44.5833,70.34,73,46,5.1,YE,2021-02-07 18:27:02
228,{251},Arrondissement de Morlaix,48.5833,-4.0,42.01,81,90,9.22,FR,2021-02-07 18:27:02
229,{254},Bulungu,-4.55,18.6,77.29,74,26,2.3,CD,2021-02-07 18:23:04
230,{256},Semibratovo,57.3046,39.5369,-4.0,65,0,11.18,RU,2021-02-07 18:27:03
231,{257},Aquiraz,-3.9014,-38.3911,86.0,66,40,13.8,BR,2021-02-07 18:24:31
232,{258},Souillac,-20.5167,57.5167,80.6,74,75,6.91,MU,2021-02-07 18:26:44
233,{260},Lagoa,39.05,-27.9833,57.85,74,100,20.69,PT,2021-02-07 18:27:03
234,{261},Itarema,-2.9248,-39.9167,87.76,58,0,15.03,BR,2021-02-07 18:27:03
235,{262},Manaus,-3.1019,-60.025,78.8,83,75,12.66,BR,2021-02-07 18:24:33
236,{263},Davila,18.4726,120.5763,75.2,88,75,1.14,PH,2021-02-07 18:27:03
237,{264},Makkah al Mukarramah,21.4267,39.8261,73.36,33,0,6.93,SA,2021-02-07 18:27:03
238,{265},Srandakan,-7.9386,110.2506,76.06,91,100,5.61,ID,2021-02-07 18:27:03
239,{266},Fuzhou,26.0614,119.3061,62.6,72,75,6.71,CN,2021-02-07 18:27:04
240,{267},Harper,4.375,-7.7169,82.04,79,63,6.85,LR,2021-02-07 18:27:04
241,{268},Hohhot,40.8106,111.6522,8.6,61,0,6.71,CN,2021-02-07 18:27:04
242,{269},Santa Lucía,27.9117,-15.5407,64.4,68,40,18.41,ES,2021-02-07 18:27:04
243,{270},Biak,-0.9131,122.8766,77.52,80,100,2.86,ID,2021-02-07 18:27:04
244,{271},Leshukonskoye,64.8989,45.7622,-18.67,87,100,8.5,RU,2021-02-07 18:27:04
245,{273},Hasaki,35.7333,140.8333,35.6,75,40,3.44,JP,2021-02-07 18:25:42
246,{274},Kutum,14.2,24.6667,60.03,29,9,8.3,SD,2021-02-07 18:27:05
247,{276},Khatanga,71.9667,102.5,-31.58,79,0,9.4,RU,2021-02-07 18:24:09
248,{277},Talnakh,69.4865,88.3972,-22.27,73,0,3.36,RU,2021-02-07 18:27:05
249,{278},Kosa,59.9445,54.9977,-17.93,88,100,8.95,RU,2021-02-07 18:27:05
250,{279},Giohar,2.7809,45.5005,75.92,71,3,20.38,SO,2021-02-07 18:27:05
251,{280},Navahrudak,53.6,25.8333,-3.46,92,72,7.16,BY,2021-02-07 18:27:05
252,{281},Owando,-0.4819,15.8999,79.99,67,66,3.31,CG,2021-02-07 18:27:05
253,{282},Ajdabiya,30.7554,20.2263,69.35,27,100,17.22,LY,2021-02-07 18:27:05
254,{283},Wakkanai,45.4094,141.6739,18.0,92,97,6.29,JP,2021-02-07 18:27:06
255,{284},Yeppoon,-23.1333,150.7333,78.8,83,40,10.36,AU,2021-02-07 18:27:06
256,{285},Segezha,63.7415,34.3222,-1.7,93,90,6.71,RU,2021-02-07 18:27:06
257,{286},Prachuap Khiri Khan,12.2167,99.75,69.48,82,0,3.0,TH,2021-02-07 18:27:06
258,{287},Louis Trichardt,-23.0439,29.9032,67.42,72,100,5.21,ZA,2021-02-07 18:27:06
259,{288},Tuatapere,-46.1333,167.6833,55.78,73,95,4.76,NZ,2021-02-07 18:27:06
260,{289},Paamiut,61.994,-49.6678,29.64,86,36,2.48,GL,2021-02-07 18:27:06
261,{290},Kamloops,50.6665,-120.3192,24.8,58,90,5.75,CA,2021-02-07 18:24:50
262,{293},Faanui,-16.4833,-151.75,80.96,76,2,12.1,PF,2021-02-07 18:25:09
263,{295},Goma,-1.6792,29.2228,66.43,74,29,3.33,CD,2021-02-07 18:27:07
264,{296},Nampula,-15.1165,39.2666,78.8,78,75,5.75,MZ,2021-02-07 18:27:07
265,{297},Adré,13.4667,22.2,67.28,22,6,8.97,TD,2021-02-07 18:27:07
266,{298},Uíge,-7.6087,15.0613,69.62,94,86,2.39,AO,2021-02-07 18:27:07
267,{300},Haverfordwest,51.8017,-4.9691,37.0,73,15,15.99,GB,2021-02-07 18:27:07
268,{301},Begamganj,23.6,78.3333,56.46,37,0,4.25,IN,2021-02-07 18:27:08
269,{303},Hamilton,39.1834,-84.5333,23.0,38,1,9.22,US,2021-02-07 18:27:08
270,{304},Alofi,-19.0595,-169.9187,78.8,94,80,5.75,NU,2021-02-07 18:27:08
271,{305},Kaeo,-35.1,173.7833,59.0,92,64,6.91,NZ,2021-02-07 18:27:08
272,{306},Luganville,-15.5333,167.1667,77.43,72,21,6.51,VU,2021-02-07 18:26:59
273,{307},Helong,42.5397,128.9972,1.47,85,9,5.95,CN,2021-02-07 18:27:08
274,{308},Channel-Port aux Basques,47.5702,-59.1367,27.82,90,56,26.42,CA,2021-02-07 18:27:08
275,{309},Dunedin,-45.8742,170.5036,61.0,87,56,1.19,NZ,2021-02-07 18:27:08
276,{310},Upernavik,72.7868,-56.1549,18.9,81,33,4.21,GL,2021-02-07 18:27:09
277,{311},Al Bardīyah,31.7561,25.0865,64.4,61,100,10.67,LY,2021-02-07 18:27:09
278,{312},Gumdag,39.2061,54.5906,51.33,62,100,11.34,TM,2021-02-07 18:27:09
279,{313},Mareeba,-17.0,145.4333,80.01,100,100,2.46,AU,2021-02-07 18:25:15
280,{314},Sur,22.5667,59.5289,65.62,73,0,4.65,OM,2021-02-07 18:22:43
281,{315},Hualmay,-11.0964,-77.6139,77.09,62,100,9.19,PE,2021-02-07 18:27:09
282,{318},Onoda,34.0014,131.1836,51.8,62,20,14.97,JP,2021-02-07 18:27:09
283,{319},Henties Bay,-22.116,14.2845,64.99,87,75,4.0,NA,2021-02-07 18:27:10
284,{320},Linjiang,41.8069,126.9078,1.22,88,59,1.72,CN,2021-02-07 18:27:10
285,{321},Ávato,40.9667,24.8,54.0,82,20,4.61,GR,2021-02-07 18:27:10
286,{322},Mahon,39.8885,4.2658,48.2,93,40,5.75,ES,2021-02-07 18:27:10
287,{324},Omsukchan,62.5333,155.8,2.53,86,100,13.6,RU,2021-02-07 18:27:10
288,{325},Coria,39.9879,-6.5377,48.0,86,99,4.0,ES,2021-02-07 18:27:10
289,{326},Dingle,10.9995,122.6711,75.99,90,100,9.26,PH,2021-02-07 18:27:10
290,{327},Tūkrah,32.5341,20.5791,67.59,37,100,19.3,LY,2021-02-07 18:27:10
291,{328},Vila Velha,-20.3297,-40.2925,71.6,94,90,3.44,BR,2021-02-07 18:24:00
292,{329},Karratha,-20.7377,116.8463,78.84,70,54,11.1,AU,2021-02-07 18:25:28
293,{330},Lages,-27.8161,-50.3261,78.87,36,0,6.04,BR,2021-02-07 18:25:55
294,{331},Obo,5.3998,26.4869,74.14,20,77,4.65,CF,2021-02-07 18:27:11
295,{332},Yar-Sale,66.8333,70.8333,-10.75,90,100,24.85,RU,2021-02-07 18:27:11
296,{333},Arlit,18.7369,7.3853,76.82,14,95,7.58,NE,2021-02-07 18:27:11
297,{334},Lake City,30.1897,-82.6393,55.4,82,90,6.91,US,2021-02-07 18:25:05
298,{335},Swan Hill,-35.3378,143.5544,56.37,62,75,11.7,AU,2021-02-07 18:27:11
299,{336},Canyon Lake,29.8752,-98.2625,62.01,48,0,5.01,US,2021-02-07 18:27:11
300,{337},Aklavik,68.2191,-135.0107,-13.0,64,90,13.8,CA,2021-02-07 18:25:52
301,{338},Gwadar,25.1216,62.3254,67.98,50,0,5.3,PK,2021-02-07 18:27:12
302,{340},Rome,43.2128,-75.4557,28.99,80,90,7.63,US,2021-02-07 18:26:05
303,{341},Jászkarajenő,47.05,20.0667,37.4,100,90,9.22,HU,2021-02-07 18:27:12
304,{342},Taiobeiras,-15.8078,-42.2331,69.06,91,100,2.39,BR,2021-02-07 18:27:12
305,{343},Jiuquan,39.7432,98.5174,31.1,69,61,5.55,CN,2021-02-07 18:27:12
306,{345},Nanortalik,60.1432,-45.2371,32.61,87,100,15.08,GL,2021-02-07 18:27:12
307,{346},Portland,45.5234,-122.6762,45.0,76,75,3.44,US,2021-02-07 18:27:12
308,{347},Yārāda,17.65,83.2667,73.4,83,20,2.3,IN,2021-02-07 18:27:13
309,{348},Saint-Augustin,51.226,-58.6502,29.28,93,75,22.3,CA,2021-02-07 18:26:59
310,{349},Kambove,-10.8764,26.5969,65.59,97,76,4.16,CD,2021-02-07 18:27:13
311,{350},Baruun-Urt,46.6806,113.2792,-3.06,86,17,8.41,MN,2021-02-07 18:27:13
312,{351},São Joaquim,-28.2939,-49.9317,74.3,38,0,4.83,BR,2021-02-07 18:27:13
313,{353},Berlevåg,70.8578,29.0864,24.8,79,75,20.71,NO,2021-02-07 18:27:13
314,{354},Rawalpindi,33.6007,73.0679,54.0,65,1,1.99,PK,2021-02-07 18:26:38
315,{355},Mahibadhoo,3.7833,72.9667,81.43,74,34,13.24,MV,2021-02-07 18:27:13
316,{356},Katobu,-4.9408,122.5276,75.74,93,87,0.81,ID,2021-02-07 18:26:23
317,{357},Homer,59.6425,-151.5483,17.6,85,1,6.91,US,2021-02-07 18:27:14
318,{358},Lichuan,30.3,108.85,42.26,92,100,2.15,CN,2021-02-07 18:27:14
319,{359},Ayan,56.45,138.1667,-4.9,79,100,20.13,RU,2021-02-07 18:27:14
320,{360},Vilyuysk,63.7553,121.6247,-22.83,85,81,11.14,RU,2021-02-07 18:27:14
321,{362},Omboué,-1.5746,9.2618,79.27,84,100,4.12,GA,2021-02-07 18:27:14
322,{363},Balabac,7.9868,117.0645,79.54,82,100,6.67,PH,2021-02-07 18:27:14
323,{364},Ternate,0.8,127.4,81.21,78,71,5.53,ID,2021-02-07 18:27:14
324,{366},Bichura,50.5881,107.6022,4.21,87,84,2.71,RU,2021-02-07 18:27:15
325,{367},Nyurba,63.2842,118.3319,-5.39,88,100,7.96,RU,2021-02-07 18:27:15
326,{368},Hoi An,15.8794,108.335,73.4,83,75,2.17,VN,2021-02-07 18:27:15
327,{369},Jieshi,22.8134,115.8257,62.46,83,0,11.43,CN,2021-02-07 18:27:15
328,{370},Prado,-17.3411,-39.2208,81.43,83,77,10.92,BR,2021-02-07 18:25:19
329,{371},Bilibino,68.0546,166.4372,-1.23,72,0,6.02,RU,2021-02-07 18:27:15
330,{372},Barra da Estiva,-13.6261,-41.3269,76.32,72,95,3.76,BR,2021-02-07 18:27:15
331,{373},Tautira,-17.7333,-149.15,80.6,69,75,4.61,PF,2021-02-07 18:26:39
332,{374},Dakar,14.6937,-17.4441,68.0,68,0,16.11,SN,2021-02-07 18:27:16
333,{375},Arrondissement de Saint-Denis,48.9167,2.3333,34.0,80,90,6.91,FR,2021-02-07 18:27:16
334,{376},Bacolod City,10.6667,122.95,78.1,82,100,12.64,PH,2021-02-07 18:26:07
335,{377},Robertsport,6.7533,-11.3686,81.9,76,64,13.47,LR,2021-02-07 18:27:16
336,{378},Mogadishu,2.0371,45.3438,78.19,77,5,24.47,SO,2021-02-07 18:24:01
337,{379},Salitral,-4.8572,-80.6811,91.56,37,2,6.82,PE,2021-02-07 18:27:16
338,{380},Lázaro Cárdenas,17.9583,-102.2,83.46,51,8,5.73,MX,2021-02-07 18:26:08
339,{381},Dillon,34.4166,-79.3712,48.99,81,90,9.22,US,2021-02-07 18:27:16
340,{383},Cruces,22.3411,-80.2667,87.8,70,40,11.5,CU,2021-02-07 18:27:17
341,{384},Ballina,-28.8667,153.5667,75.2,78,75,10.36,AU,2021-02-07 18:27:17
342,{385},Golden,39.7555,-105.2211,52.0,12,20,47.18,US,2021-02-07 18:27:17
343,{386},Goderich,43.7501,-81.7165,10.4,61,99,14.97,CA,2021-02-07 18:24:45
344,{387},Cherskiy,68.75,161.3,-4.38,71,41,1.14,RU,2021-02-07 18:27:17
345,{388},Okaya,36.0566,138.0451,30.0,73,7,1.01,JP,2021-02-07 18:27:17
346,{389},La Ronge,55.1001,-105.2842,-32.8,61,17,6.91,CA,2021-02-07 18:26:45
347,{390},Along,28.1667,94.7667,52.07,58,0,1.72,IN,2021-02-07 18:27:17
348,{391},Bubaque,11.2833,-15.8333,78.78,61,1,16.62,GW,2021-02-07 18:27:05
349,{392},Teknāf,20.8624,92.3058,68.92,59,0,16.4,BD,2021-02-07 18:27:17
350,{393},Padang,-0.9492,100.3543,80.6,78,40,8.05,ID,2021-02-07 18:27:18
351,{394},Broken Hill,-31.95,141.4333,62.6,48,0,8.05,AU,2021-02-07 18:27:18
352,{395},Angoche,-16.2325,39.9086,81.34,79,38,6.35,MZ,2021-02-07 18:24:24
353,{396},Pangkalanbuun,-2.6833,111.6167,74.62,96,95,3.4,ID,2021-02-07 18:27:18
354,{398},Donskoy,53.9711,38.3363,2.82,93,93,13.91,RU,2021-02-07 18:24:16
355,{399},Atakpamé,7.5333,1.1333,92.14,23,88,1.79,TG,2021-02-07 18:27:18
356,{400},Quelimane,-17.8786,36.8883,84.2,79,75,3.44,MZ,2021-02-07 18:27:18
357,{401},Lubango,-14.9172,13.4925,65.53,68,99,3.22,AO,2021-02-07 18:25:23
358,{402},Ciudad Real,39.0,-4.0,46.99,77,96,7.0,ES,2021-02-07 18:27:19
359,{404},Praia,14.9215,-23.5087,71.6,60,75,24.16,CV,2021-02-07 18:27:19
360,{406},Umm Kaddadah,13.6017,26.6876,68.5,23,14,13.18,SD,2021-02-07 18:27:19
361,{407},Lebu,-37.6167,-73.65,64.33,73,51,8.5,CL,2021-02-07 18:25:23
362,{408},Yining,29.0361,114.5636,52.27,85,100,5.28,CN,2021-02-07 18:27:19
363,{409},Phalaborwa,-23.943,31.1411,71.6,100,100,2.3,ZA,2021-02-07 18:27:19
364,{410},Evensk,61.95,159.2333,18.52,83,100,34.94,RU,2021-02-07 18:25:54
365,{411},Izhma,65.0083,53.9113,-25.8,83,100,11.81,RU,2021-02-07 18:27:20
366,{412},Sadovoye,47.7764,44.5089,19.0,75,30,13.53,RU,2021-02-07 18:27:20
367,{413},Srīvardhan,18.0333,73.0167,75.99,47,11,7.58,IN,2021-02-07 18:27:20
368,{414},Buala,-8.145,159.5921,79.61,82,92,6.55,SB,2021-02-07 18:27:20
369,{415},Namatanai,-3.6667,152.4333,80.31,80,85,4.99,PG,2021-02-07 18:27:20
370,{416},Bījār,35.8668,47.6051,35.91,85,0,7.38,IR,2021-02-07 18:27:20
371,{418},Lima,-12.0432,-77.0282,77.0,69,75,9.22,PE,2021-02-07 18:24:25
372,{419},Aquidauana,-20.4711,-55.7872,88.3,43,0,2.46,BR,2021-02-07 18:27:20
373,{420},Bahawalpur,29.4,71.6833,63.5,26,0,5.19,PK,2021-02-07 18:27:21
374,{421},Ciudad Bolivar,8.1222,-63.5497,92.16,42,100,12.37,VE,2021-02-07 18:27:21
375,{422},Bayir,37.2687,28.2167,59.0,77,75,4.61,TR,2021-02-07 18:27:21
376,{424},Sterling,39.0062,-77.4286,39.0,93,90,6.91,US,2021-02-07 18:23:57
377,{425},Kenora,49.8167,-94.4337,-20.0,57,1,10.36,CA,2021-02-07 18:27:21
378,{426},Grindavik,63.8424,-22.4338,32.0,74,40,13.8,IS,2021-02-07 18:27:21
379,{427},Kings Park,40.8862,-73.2573,33.01,84,100,1.01,US,2021-02-07 18:27:21
380,{428},Ligayan,4.6533,119.4706,81.5,82,100,13.78,PH,2021-02-07 18:27:21
381,{429},Fujishiro,35.9167,140.1167,48.0,75,40,3.44,JP,2021-02-07 18:27:22
382,{430},Maricá,-22.9194,-42.8186,78.01,83,75,8.05,BR,2021-02-07 18:27:22
383,{431},Mâncio Lima,-7.6142,-72.8958,91.4,66,40,6.91,BR,2021-02-07 18:27:22
384,{432},Loa Janan,-0.583,117.095,74.98,94,100,0.76,ID,2021-02-07 18:27:22
385,{433},City of San Pedro,14.35,121.0167,79.0,78,20,2.3,PH,2021-02-07 18:27:22
386,{434},Tadine,-21.55,167.8833,76.17,85,3,4.14,NC,2021-02-07 18:27:22
387,{435},Ambatondrazaka,-17.8333,48.4167,70.14,88,78,4.27,MG,2021-02-07 18:27:22
388,{437},Zhigansk,66.7697,123.3711,-31.11,80,79,11.39,RU,2021-02-07 18:27:22
389,{439},Kaélé,10.1092,14.4508,80.38,16,79,7.11,CM,2021-02-07 18:27:23
390,{440},Agadez,19.75,10.25,70.99,18,83,8.93,NE,2021-02-07 18:27:23
391,{441},Buluang,13.3068,123.3425,75.65,87,97,5.68,PH,2021-02-07 18:27:23
392,{442},Bolgar,54.95,49.0667,-0.4,71,75,15.66,RU,2021-02-07 18:27:23
393,{443},Ubinskoye,55.3068,79.6802,12.25,94,100,18.07,RU,2021-02-07 18:27:23
394,{444},Don Luan,11.5333,106.9167,73.09,86,58,0.94,VN,2021-02-07 18:27:23
395,{445},Westport,41.1415,-73.3579,30.99,86,90,12.66,US,2021-02-07 18:25:28
396,{446},Allanridge,-27.7543,26.6438,72.0,74,63,0.76,ZA,2021-02-07 18:27:23
397,{447},Chitral,35.8462,71.7858,46.74,48,56,2.59,PK,2021-02-07 18:27:23
398,{448},Coro,11.4045,-69.6734,85.05,58,96,18.9,VE,2021-02-07 18:27:24
399,{449},Aykhal,66.0,111.5,-24.74,83,100,5.3,RU,2021-02-07 18:27:24
400,{450},Kavieng,-2.5744,150.7967,82.53,77,42,8.77,PG,2021-02-07 18:23:40
401,{451},College,64.8569,-147.8028,-14.01,83,20,2.95,US,2021-02-07 18:27:24
402,{452},Kapit,2.0167,112.9333,73.42,95,100,1.1,MY,2021-02-07 18:27:24
403,{454},Campo Grande,-20.4428,-54.6464,86.0,42,40,4.61,BR,2021-02-07 18:27:24
404,{456},Guozhen,34.3659,107.359,43.45,53,0,1.48,CN,2021-02-07 18:27:24
405,{457},Araquari,-26.3703,-48.7211,88.0,42,0,8.05,BR,2021-02-07 18:27:25
406,{458},Itoman,26.1247,127.6694,62.6,72,20,6.91,JP,2021-02-07 18:27:25
407,{460},El Salvador,13.8333,-88.9167,89.6,58,20,6.91,SV,2021-02-07 18:27:25
408,{461},Dehlorān,32.6941,47.2679,59.09,69,10,1.43,IR,2021-02-07 18:27:25
409,{462},Maningrida,-12.0667,134.2667,77.27,88,100,8.34,AU,2021-02-07 18:27:25
410,{463},Ilām,26.9167,87.9167,50.59,65,0,4.36,NP,2021-02-07 18:27:25
411,{464},The Valley,18.217,-63.0578,84.2,69,20,18.41,AI,2021-02-07 18:27:25
412,{465},Anchorage,61.2181,-149.9003,8.6,78,90,4.61,US,2021-02-07 18:23:27
413,{466},Qasigiannguit,68.8193,-51.1922,26.6,36,0,11.5,GL,2021-02-07 18:27:26
414,{467},Ibrā’,22.6906,58.5334,56.28,87,0,1.23,OM,2021-02-07 18:27:26
415,{468},Klaksvík,62.2266,-6.589,35.6,69,20,13.8,FO,2021-02-07 18:27:26
416,{469},Saint-Pierre,-21.3393,55.4781,78.8,83,0,5.75,RE,2021-02-07 18:26:07
417,{470},Dwārka,22.2394,68.9678,69.89,57,0,11.23,IN,2021-02-07 18:27:26
418,{471},Manaure,11.7751,-72.4445,86.52,52,100,20.54,CO,2021-02-07 18:27:26
419,{472},Santa Rosa,14.3122,121.1114,79.0,78,20,2.3,PH,2021-02-07 18:27:26
420,{473},Kāsaragod,12.5,75.0,78.8,65,0,4.61,IN,2021-02-07 18:27:26
421,{474},Mossamedes,-15.1961,12.1522,73.35,75,94,6.33,AO,2021-02-07 18:27:26
422,{477},Taoudenni,22.6783,-3.9836,69.67,22,0,8.93,ML,2021-02-07 18:26:52
423,{478},Christchurch,-43.5333,172.6333,59.0,94,40,6.91,NZ,2021-02-07 18:27:27
424,{479},Flinders,-34.5833,150.8552,66.0,82,71,1.01,AU,2021-02-07 18:27:27
425,{480},Iskateley,67.6803,53.1512,-16.42,88,100,15.46,RU,2021-02-07 18:27:27
426,{481},Buşayrā,30.7376,35.6078,52.47,71,0,1.57,JO,2021-02-07 18:27:27
427,{482},Siniscola,40.5719,9.6922,51.8,93,20,3.44,IT,2021-02-07 18:26:39
428,{483},Isla Mujeres,21.2311,-86.731,84.2,74,75,13.8,MX,2021-02-07 18:27:27
429,{484},Santa Maria,-29.6842,-53.8069,86.0,51,20,5.75,BR,2021-02-07 18:27:28
430,{485},Umluj,25.0213,37.2685,74.73,27,0,19.46,SA,2021-02-07 18:27:28
431,{486},Kampene,-3.6,26.6667,72.34,89,97,1.12,CD,2021-02-07 18:27:28
432,{487},Tartagal,-22.5164,-63.8013,91.36,30,0,6.8,AR,2021-02-07 18:27:28
433,{488},Ust-Kuyga,70.0167,135.6,-29.07,82,0,1.66,RU,2021-02-07 18:27:28
434,{490},Novikovo,51.1537,37.8879,3.07,91,12,8.52,RU,2021-02-07 18:27:28
435,{491},Thessalon,46.2501,-83.5666,12.2,62,1,9.22,CA,2021-02-07 18:27:28
436,{493},Locri,38.2414,16.2623,60.8,77,90,21.85,IT,2021-02-07 18:27:28
437,{494},Borzya,50.3833,116.5167,-16.49,85,0,0.6,RU,2021-02-07 18:27:29
438,{495},Geraldton,-28.7667,114.6,69.8,78,40,10.36,AU,2021-02-07 18:26:40
439,{496},Sovetskaya Gavan',48.9723,140.2878,0.93,81,66,14.61,RU,2021-02-07 18:27:29
440,{497},Vuktyl,63.8567,57.3094,-23.67,85,100,9.33,RU,2021-02-07 18:27:29
441,{498},Batagay-Alyta,67.8006,130.4114,-32.93,79,0,2.44,RU,2021-02-07 18:27:29
442,{499},San Jose de Guanipa,8.8872,-64.1651,86.65,49,97,12.64,VE,2021-02-07 18:27:29
443,{500},Schiffdorf,53.5333,8.65,26.6,59,75,34.52,DE,2021-02-07 18:27:29
444,{501},Shingū,33.7333,135.9833,41.38,80,0,5.93,JP,2021-02-07 18:27:29
445,{503},Alta Floresta,-9.8756,-56.0861,87.8,66,40,8.05,BR,2021-02-07 18:27:30
446,{504},Santa Fe,-31.6333,-60.7,93.0,30,0,8.99,AR,2021-02-07 18:27:30
447,{506},Mikhaylovka,50.06,43.2379,10.0,74,58,11.99,RU,2021-02-07 18:27:30
448,{507},Nome,64.5011,-165.4064,-5.8,84,1,4.43,US,2021-02-07 18:27:30
449,{508},Verkhoshizhem'ye,58.011,49.1038,-16.17,87,100,10.38,RU,2021-02-07 18:27:30
450,{509},Dokka,60.84,10.0618,8.01,66,0,4.59,NO,2021-02-07 18:27:31
451,{510},Swāmimalai,10.95,79.3333,70.5,82,8,9.06,IN,2021-02-07 18:27:31
452,{511},Gushikawa,26.3544,127.8686,62.6,67,1,3.44,JP,2021-02-07 18:27:31
453,{512},Marawi,7.9986,124.2928,75.0,95,100,1.99,PH,2021-02-07 18:27:31
454,{513},Turukhansk,65.8167,87.9833,5.4,94,100,17.22,RU,2021-02-07 18:27:31
455,{514},Polovinnoye,54.7914,65.9864,4.21,91,93,15.37,RU,2021-02-07 18:27:31
456,{515},Hong Kong,22.2855,114.1577,68.0,84,0,10.58,HK,2021-02-07 18:25:30
457,{516},Sambava,-14.2667,50.1667,78.93,80,100,0.83,MG,2021-02-07 18:26:20
458,{517},Umm Hājar,13.2954,19.6966,72.63,18,34,6.31,TD,2021-02-07 18:27:31
459,{518},Chabahar,25.2919,60.643,67.87,53,0,3.36,IR,2021-02-07 18:27:31
460,{519},Vanimo,-2.6741,141.3028,77.29,86,100,2.21,PG,2021-02-07 18:27:32
461,{520},Toba Tek Singh,30.9743,72.4827,58.24,36,0,2.68,PK,2021-02-07 18:27:32
462,{521},Ribeira Grande,38.5167,-28.7,60.8,72,40,16.11,PT,2021-02-07 18:25:38
463,{522},Khani,41.9563,42.9566,44.6,100,75,2.3,GE,2021-02-07 18:27:32
464,{523},Lambaréné,-0.7001,10.2406,78.1,87,97,4.43,GA,2021-02-07 18:27:32
465,{524},Port Moresby,-9.4431,147.1797,77.0,94,40,8.05,PG,2021-02-07 18:25:19
466,{525},Pyapon,16.2833,95.6833,71.83,70,17,7.4,MM,2021-02-07 18:27:32
467,{526},Rio Grande,-32.035,-52.0986,80.6,61,20,11.5,BR,2021-02-07 18:27:32
468,{527},Mount Isa,-20.7333,139.5,78.8,94,90,9.22,AU,2021-02-07 18:27:33
469,{528},Waddān,29.1614,16.139,74.35,17,76,9.57,LY,2021-02-07 18:27:33
470,{530},Sundumbili,-29.1337,31.3975,77.0,83,75,6.91,ZA,2021-02-07 18:27:33
471,{531},Iwaki,37.05,140.8833,37.0,73,8,1.01,JP,2021-02-07 18:27:33
472,{532},Inhambane,-23.865,35.3833,82.4,74,20,4.61,MZ,2021-02-07 18:26:02
473,{533},Chilliwack,49.1747,-121.9443,42.01,93,100,1.14,CA,2021-02-07 18:23:10
474,{534},Itaíba,-8.9475,-37.4228,97.12,17,78,6.53,BR,2021-02-07 18:27:33
475,{535},Caraúbas,-5.7925,-37.5567,96.8,38,20,20.71,BR,2021-02-07 18:27:33
476,{536},Yulara,-25.2406,130.9889,75.2,33,2,8.05,AU,2021-02-07 18:27:34
477,{537},Barth,54.3635,12.7249,28.0,54,90,26.46,DE,2021-02-07 18:27:34
478,{538},Northam,51.0333,-4.2167,37.0,70,23,13.0,GB,2021-02-07 18:27:34
479,{539},Jalu,29.0331,21.5482,68.23,25,68,12.66,LY,2021-02-07 18:27:34
480,{540},Lorengau,-2.0226,147.2712,81.72,79,98,7.81,PG,2021-02-07 18:27:34
481,{541},Rundu,-17.9333,19.7667,74.21,78,97,2.35,NA,2021-02-07 18:27:34
482,{542},Auki,-8.7676,160.7034,77.77,85,77,6.78,SB,2021-02-07 18:26:22
483,{543},Yaring,6.8662,101.3689,75.85,88,3,7.52,TH,2021-02-07 18:27:34
484,{544},Stromness,58.965,-3.296,33.8,69,75,13.8,GB,2021-02-07 18:27:35
485,{545},Ambulu,-8.345,113.6058,76.06,91,100,3.42,ID,2021-02-07 18:27:35
486,{546},Salalah,17.0151,54.0924,73.4,68,40,3.44,OM,2021-02-07 18:26:24
487,{547},Boljoon,9.6281,123.4785,78.8,94,90,4.61,PH,2021-02-07 18:27:35
488,{548},Marsá Maţrūḩ,31.3525,27.2453,62.6,77,0,8.05,EG,2021-02-07 18:27:35
489,{549},Ishigaki,24.3448,124.1572,70.09,73,84,12.57,JP,2021-02-07 18:27:35
490,{550},Mountain Home,43.133,-115.6912,42.8,42,1,13.8,US,2021-02-07 18:26:26
491,{551},Kelowna,49.8831,-119.4857,33.8,55,75,4.61,CA,2021-02-07 18:23:12
492,{552},Esim,4.8699,-2.2405,81.39,82,100,9.35,GH,2021-02-07 18:27:36
493,{553},Praia,14.9215,-23.5087,71.6,60,75,24.16,CV,2021-02-07 18:27:19
494,{554},Pemangkat,1.1667,108.9667,75.67,90,99,7.87,ID,2021-02-07 18:27:36
495,{556},Kiunga,-6.1219,141.2906,75.06,97,100,1.19,PG,2021-02-07 18:27:36
496,{557},Yumen,40.2833,97.2,28.47,73,72,4.25,CN,2021-02-07 18:27:36
497,{558},Hambantota,6.1241,81.1185,77.0,94,0,8.05,LK,2021-02-07 18:27:36
498,{559},Huarmey,-10.0681,-78.1522,77.31,61,72,9.93,PE,2021-02-07 18:27:36
499,{561},Maniitsoq,65.4167,-52.9,27.63,81,0,15.55,GL,2021-02-07 18:26:17
500,{562},San Jose,37.3394,-121.895,59.0,62,1,1.63,US,2021-02-07 18:26:53
501,{564},Ixtapa,20.7,-105.2,75.2,64,1,6.91,MX,2021-02-07 18:27:37
502,{565},Hanna,51.6334,-111.9018,-20.99,76,0,1.01,CA,2021-02-07 18:27:37
503,{566},Tres Arroyos,-38.3739,-60.2798,66.65,62,87,18.88,AR,2021-02-07 18:27:37
504,{567},Ati,13.2154,18.3353,73.38,18,34,7.29,TD,2021-02-07 18:27:37
505,{568},Wasilla,61.5814,-149.4394,5.0,77,0,1.72,US,2021-02-07 18:27:37
506,{569},Altus,34.6381,-99.334,39.2,93,90,11.5,US,2021-02-07 18:27:37
507,{570},Asău,46.4333,26.4,28.99,74,100,2.15,RO,2021-02-07 18:27:38
508,{572},Painesville,41.7245,-81.2457,19.0,57,90,12.66,US,2021-02-07 18:27:38
509,{573},Plastun,44.7561,136.2939,-6.36,85,0,11.59,RU,2021-02-07 18:27:38
510,{574},Otavi,-19.65,17.3333,75.56,58,90,8.9,NA,2021-02-07 18:27:38
511,{575},Atessa,42.0693,14.4511,57.0,67,75,20.0,IT,2021-02-07 18:27:38
512,{576},Fort Nelson,58.8053,-122.7002,-29.2,68,20,2.3,CA,2021-02-07 18:27:38
513,{577},Gazojak,41.1875,61.4036,49.84,61,100,8.81,TM,2021-02-07 18:27:38
514,{578},Abū Zabad,12.35,29.25,68.59,23,0,10.89,SD,2021-02-07 18:27:38
515,{579},Yerbogachën,61.2767,108.0108,17.35,97,100,5.95,RU,2021-02-07 18:27:39
516,{580},Southbridge,42.0751,-72.0334,28.99,89,100,7.94,US,2021-02-07 18:27:39
517,{581},Smidovich,48.6,133.8167,-9.29,87,66,8.32,RU,2021-02-07 18:24:07
518,{582},Ilulissat,69.2167,-51.1,26.6,36,0,11.5,GL,2021-02-07 18:27:39
519,{583},Mogadouro,41.3403,-6.7119,41.0,93,100,4.0,PT,2021-02-07 18:27:39
520,{584},Turaif,31.6725,38.6637,53.6,71,0,4.61,SA,2021-02-07 18:27:39
521,{585},Kharitonovo,61.4009,47.4978,-19.86,85,100,8.01,RU,2021-02-07 18:27:39
522,{586},Barcelona,41.3888,2.159,52.0,71,20,5.75,ES,2021-02-07 18:25:08
523,{587},Xixiang,35.1628,112.865,35.74,76,69,2.53,CN,2021-02-07 18:27:39
524,{588},Gdańsk,54.3521,18.6464,14.0,79,75,11.5,PL,2021-02-07 18:27:39
525,{589},Vohibinany,-17.35,49.0333,75.18,88,70,0.49,MG,2021-02-07 18:27:40
526,{590},Silver City,32.7701,-108.2803,60.8,11,1,21.85,US,2021-02-07 18:27:40
527,{591},Vangaindrano,-23.35,47.6,78.89,89,100,11.36,MG,2021-02-07 18:27:40
528,{592},Guilin,25.2819,110.2864,64.4,72,50,4.47,CN,2021-02-07 18:27:40
529,{593},Loralai,30.3705,68.598,51.37,41,0,1.86,PK,2021-02-07 18:27:40
530,{594},Korla,41.7597,86.1469,31.98,79,67,5.37,CN,2021-02-07 18:27:40
531,{595},Chino Valley,34.7575,-112.4538,55.0,34,1,4.61,US,2021-02-07 18:27:40
532,{596},Coquimbo,-29.9533,-71.3436,69.8,56,0,11.5,CL,2021-02-07 18:23:45
533,{597},Tsabong,-26.0217,22.401,82.96,43,0,11.45,BW,2021-02-07 18:27:40
534,{598},Japura,-0.3167,102.35,74.8,84,100,1.36,ID,2021-02-07 18:25:31
535,{599},Mohelnice,49.777,16.9195,24.01,85,100,1.99,CZ,2021-02-07 18:27:41
536,{600},Ust-Nera,64.5667,143.2,-10.34,75,96,5.93,RU,2021-02-07 18:27:41
537,{601},Sri Aman,1.2376,111.4621,75.2,100,100,0.89,MY,2021-02-07 18:27:41
538,{602},Daru,-9.0763,143.2092,78.66,86,75,12.48,PG,2021-02-07 18:27:41
539,{603},Panguna,-6.3164,155.4848,69.57,95,99,0.18,PG,2021-02-07 18:27:41
540,{604},Irbeyskoye,55.6428,95.4522,24.6,94,49,5.95,RU,2021-02-07 18:27:41
541,{605},Chingirlau,51.095,54.0814,-6.12,91,96,11.16,KZ,2021-02-07 18:27:41
542,{606},Leningradskiy,69.3833,178.4167,-13.77,79,5,5.41,RU,2021-02-07 18:27:41
543,{608},Humaitá,-7.5061,-63.0208,95.25,43,36,3.47,BR,2021-02-07 18:27:42
544,{609},Nong’an,44.382,125.1685,-11.2,77,0,2.24,CN,2021-02-07 18:27:42
545,{610},Usinsk,65.9939,57.5281,-23.03,85,100,16.33,RU,2021-02-07 18:27:42
546,{611},Dawson Creek,55.7666,-120.2362,-38.2,67,90,2.3,CA,2021-02-07 18:27:42
547,{613},Makungu,-8.7333,35.2833,67.23,91,100,1.57,TZ,2021-02-07 18:27:42
548,{614},Lerwick,60.1545,-1.1494,33.8,60,75,9.22,GB,2021-02-07 18:27:42
549,{615},Conceição do Araguaia,-8.2578,-49.2647,79.56,82,100,8.55,BR,2021-02-07 18:27:42
550,{616},Kupang,-10.1667,123.5833,79.38,82,100,7.67,ID,2021-02-07 18:27:43
551,{617},Saint Anthony,45.0205,-93.218,-7.6,54,1,10.36,US,2021-02-07 18:27:43
552,{618},Bahía Blanca,-38.7196,-62.2724,60.8,88,90,21.85,AR,2021-02-07 18:27:43
553,{619},‘Ewa Beach,21.3156,-158.0072,64.4,72,1,3.44,US,2021-02-07 18:27:43
554,{620},Gamba,-2.65,10.0,78.94,85,100,6.29,GA,2021-02-07 18:27:43
555,{621},Chestermere,51.0334,-113.8187,-8.0,77,20,8.05,CA,2021-02-07 18:23:59
556,{623},Ifakara,-8.1333,36.6833,76.03,89,32,3.56,TZ,2021-02-07 18:27:43
557,{624},Burkburnett,34.0979,-98.5706,46.4,61,20,18.41,US,2021-02-07 18:27:43
558,{625},Bathsheba,13.2167,-59.5167,82.4,61,75,26.46,BB,2021-02-07 18:27:44
